usim	manufacturer	latitude	longitude	address	facility_type	floor	notice
01231322634 (44)	우리넷	37.462	126.918	서울 관악구 신림동 667-78	SKT1	[지상] 5/7층	환풍기옆 벽면.
01231321743 (171)	엔티모아	37.474	126.952	서울 관악구 봉천동 1592-9	SKT1	[지상] 4/6층	분전반 옆
01227587411 (210)	우리넷	35.869	128.546	대구 서구 평리동 1542-8	SKT1	[지상] 4/4층	안쪽 배풍기 옆
01227587886 (212)	우리넷	35.946	128.549	대구 북구 읍내동 1285-23	SKT1	[지상] 1/3층	분전반 하단벽면
01227587639 (218)	우리넷	36.099	128.537	경북 칠곡군 가산면 석우리 900-1	SKT1	[지상] 1/1층	통신접지단자반 아래콘센트
01231322132 (220)	엔티모아	37.58	129.111	강원 동해시 대진항길 61	해양경찰청	[지상] 1층/1층층	묵호파출소 대진출장소
01232971975 (221)	엔티모아	34.975	128.323	경남 고성군 고성읍 성내리 2-17	우정사업본부	[지상] 1/3층	고성우체국
01227587154 (222)	우리넷	35.976	128.555	경북 칠곡군 동명면 구덕리 734-6	SKT1	[지상] 1/1층	벽면 콘센트
01227587389 (223)	우리넷	35.99	129.223	경북 경주시 안강읍 양월리 1357-14	SKT1	[지상] 3/3층	출입문 정면 급기 옆
01227587481 (224)	우리넷	35.892	129.05	경북 경주시 서면 아화리 389-11	SKT1	[지상] 4/4층	입구 정면 콘센트설치
01227587846 (225)	우리넷	35.84	128.61	대구 수성구 중동 416-8	SKT1	[지상] 4/8층	하론앞
01227587849 (226)	우리넷	35.84	128.61	대구 수성구 중동 416-8	SKT2	[지상] 7/8층	타이머 제거 후 취부
01227587328 (227)	우리넷	35.913	128.641	대구 동구 불로동 28-3	SKT1	[지상] 4/5층	AC분전함 콘센트 장착
01227579483 (229)	우리넷	35.879	128.399	대구 달성군 하빈면 하산리 1077-3	SKT1	[지상] 2/3층	기지국 실내 벽부
01227587392 (233)	우리넷	35.966	129.415	경북 포항시 남구 오천읍 세계리 857-16	SKT1	[지상] 4/4층	오천세계W 기지국
01227587621 (234)	우리넷	36.119	128.124	경북 김천시 모암동 160-14	SKT1	[지상] 4/5층	화장실 입구 옆 벽면
01227587626 (236)	우리넷	36.577	128.576	경북 안동시 풍산읍 하리리 234-1	SKT1	[지상] 1/2층	풍산하리W 기지국 실내입구 좌측 벽면
01227587738 (237)	우리넷	36.241	128.3	경북 구미시 선산읍 완전리 200-2	SKT1	[지상] 2/3층	선산완전W
01227587438 (238)	우리넷	35.988	129.356	경북 포항시 남구 연일읍 오천리 396-27	SKT1	[지상] 4/5층	연일오천W 기지국
01227587446 (239)	우리넷	35.843	129.181	경북 경주시 충효동 2961-3	SKT1	[지상] 1/4층	경주충효W
01227587663 (240)	우리넷	36.128	128.101	경북 김천시 부곡동 394-3	SKT1	[지상] 4/4층	김천부곡W
01227587231 (241)	우리넷	36.214	128.333	경북 구미시 고아읍 관심리 414-4	SKT1	[지상] 1/2층	고아관심W
01227587614 (242)	우리넷	36.652	128.456	경북 예천군 예천읍 남본리 176-1	SKT1	[지상] 2/2층	하론소화기위쪽콘센트
01227587615 (243)	우리넷	36.863	129.404	경북 울진군 기성면 망양리 산 52-1	SKT1	[지상] 1/1층	기성망양X
01227587792 (244)	우리넷	37.012	129.409	경북 울진군 울진읍 온양리 388-4	SKT1	[지상] 1/1층	"울진온양W, 하론 앞 벽면 설치"
01227587705 (245)	우리넷	36.249	128.568	경북 군위군 군위읍 정리 376-1	SKT2	[지상] 2/2층	
01227500700 (246)	우리넷	35.9	128.867	경북 영천시 금호읍 남성리 399	SKT1	[지상] 1/1층	출입문 정면 벽면에 설치
01227587662 (247)	우리넷	36.47	128.663	경북 안동시 일직면 귀미리 1022-2	SKT1	[지상] 1/1층	일직구미 기지국 입구 우측 벽면
01227587642 (248)	우리넷	35.813	129.187	경북 경주시 율동 659-1	SKT1	[지상] 2/2층	경주율동W
01227587106 (249)	우리넷	36.002	129.075	경북 영천시 고경면 가수리 237-3	SKT1	[지상] 2/2층	입구오른촉벽면
01227587721 (250)	우리넷	37.059	129.418	경북 울진군 죽변면 죽변리 418-84	SKT1	[지상] 1/1층	"죽변죽변W, 기지국 내부 왼쪽 벽면"
01227587667 (251)	우리넷	36.068	129.371	경북 포항시 북구 창포동 645-2	SKT1	[지상] 2/4층	포항창포W
01227587190 (252)	우리넷	35.98	128.978	경북 영천시 고경면 단포리 268-2	SKT1	[지상] 2/2층	입구왼편 벽면
01227587404 (255)	우리넷	36.549	128.733	경북 안동시 정하동 288-4	SKT1	[지상] 1/2층	안동정하W 기지국 입구 좌측 끝 벽면
01227587596 (256)	우리넷	35.867	129.221	경북 경주시 용강동 1186-3	SKT1	[지상] 3/3층	경주용강W
01227587550 (257)	우리넷	35.774	128.423	대구 달성군 논공읍 금포리 1536-5	SKT1	[지상] 2/3층	축전지옆
01227587851 (258)	우리넷	35.774	128.423	대구 달성군 논공읍 금포리 1536-5	SKT2	[지상] 3/3층	축전지옆
01227587743 (259)	우리넷	36.366	128.296	경북 상주시 낙동면 낙동리 770-3	SKT1	[지상] 1/1층	출입문 우측 하단 벽면
01227587749 (260)	우리넷	35.956	128.692	대구 동구 백안동 415-1	SKT1	[지상] 2/2층	접지단자반 밑
01227587746 (261)	우리넷	36.578	128.716	경북 안동시 안기동 232-14	SKT1	[지상] 3/4층	안동안기 기지국 입구 좌측 벽면
01227587624 (262)	우리넷	36.513	128.157	경북 상주시 공검면 양정리 199-44	SKT1	[지상] 1/1층	
01227587519 (263)	우리넷	35.91	128.636	대구 동구 불로동 141	SKT1	[지상] 2/3층	AC분전반 앞
01227587383 (264)	우리넷	35.91	128.636	대구 동구 불로동 141	SKT2	[지상] 3/3층	AC분전반 앞
01227587330 (265)	우리넷	36.882	128.749	경북 봉화군 봉화읍 거촌리 665	SKT1	[지상] 1/1층	건물내 접지단자반 아래
01227587785 (267)	우리넷	36.678	129.44	경북 울진군 후포면 삼율리 276-8	SKT1	[지상] 1/2층	후포삼율X
01227587320 (268)	우리넷	35.832	128.537	대구 달서구 본동 927-5	SKT1	[지상] 3/6층	냉방기옆 콘센트
01227587362 (269)	우리넷	35.813	128.524	대구 달서구 진천동 516-3	SKT1	[지상] 8/8층	
01227509914 (270)	우리넷	35.855	128.599	대구 중구 대봉동 162-34	SKT1	[지상] 4/6층	
01227579562 (271)	우리넷	35.87	128.591	대구 중구 종로1가 40-2	SKT1	[지상] 8/8층	
01227587572 (272)	우리넷	35.865	128.596	대구 중구 봉산동 34-16	SKT1	[지상] 8/10층	
01227587025 (274)	우리넷	35.87	128.603	대구 중구 동인동2가 72	SKT1	[지상] 8/8층	
01227587394 (276)	우리넷	36.732	129.475	경북 울진군 평해읍 직산리 28-1	SKT1	[지상] 1/1층	평해직산X
01227587712 (277)	우리넷	35.936	128.464	대구 달성군 하빈면 대평리 257	SKT1	[지상] 1/1층	벽면 콘센트
01227587881 (279)	우리넷	35.875	128.623	대구 동구 신천동 81-2	SKT1	[지상] 6/12층	기지국 바로 출입후 하론 옆 콘센트
01227587548 (280)	우리넷	35.829	128.692	대구 수성구 노변동 650	SKT1	[지하] 2/2층	출입문 인근
01227587475 (283)	우리넷	36.562	128.702	경북 안동시 옥동 791-2	SKT1	[지상] 7/7층	안동옥동 기지국 축전지 옆
01227587856 (286)	우리넷	35.645	128.74	경북 청도군 청도읍 고수리 510-1	SKT1	[지상] 4/4층	
01227587820 (287)	우리넷	35.858	128.636	대구 수성구 범어동 205-2	SKT1	[지상] 5/5층	입구옆 판넬벽면
01227587633 (289)	우리넷	36.834	129.436	경북 울진군 기성면 망양리 38	SKT1	[지상] 1/1층	"기성망양2X, 출입문 앞"
01227587841 (291)	우리넷	35.817	128.752	경북 경산시 사동 589	SKT1	[지상] 3/5층	경산사동W 입구 벽면
01227587869 (293)	우리넷	35.854	128.615	대구 수성구 수성동2가 168-4	SKT1	[지상] 8/10층	뒷문입구 옆 판넬
01227587114 (294)	우리넷	35.814	128.774	경북 경산시 신천동 317-1	SKT1	[지상] 1/1층	경산신천W 입구 벽면
01227587357 (295)	우리넷	35.635	128.901	경북 청도군 매전면 남양리 산 53-2	SKT1	[지상] 1/1층	
01227587527 (297)	우리넷	35.959	128.915	경북 영천시 오수동 133-18	SKT2	[지상] 2/2층	장비실 안쪽 좌측 소화설비 옆
01227587400 (298)	우리넷	36.085	128.359	경북 구미시 임은동 479-5	SKT2	[지상] 2/2층	
01227587546 (299)	우리넷	36.085	128.359	경북 구미시 임은동 479-5	SKT2	[지상] 1/2층	
01227587559 (300)	우리넷	36.11	129.347	경북 포항시 북구 흥해읍 성내리 41	SKT1	[지상] 6/7층	흥해성내
01227587388 (301)	우리넷	36.718	129.356	경북 울진군 온정면 소태리 466-2	SKT1	[지상] 1/1층	"온정소태X, 출입문 오른쪽 벽면"
01227587695 (303)	우리넷	36.719	129.394	경북 울진군 온정면 광품리 401-1	SKT1	[지상] 1/1층	"온정광품X, 출입문 오른쪽 벽면"
01227587578 (305)	우리넷	36.801	128.61	경북 영주시 문정동 161	SKT1	[지상] 3/4층	출입문 오른쪽 윗벽면
01227587646 (306)	우리넷	36.032	129.366	경북 포항시 북구 죽도동 15-24	SKT1	[지상] 6/6층	포항죽도2W
01227587685 (307)	우리넷	36.813	128.621	경북 영주시 휴천동 642-462	SKT1	[지상] 3/4층	AC분전함 벽면
01227587817 (308)	우리넷	36.367	128.685	경북 의성군 의성읍 철파리 270-32	SKT2	[지상] 1/1층	출입구 우측
01227587509 (309)	우리넷	36.665	128.614	경북 안동시 북후면 신전리 산 71-2	SKT1	[지상] 1/1층	북후신전 기지국 책상옆
01227587822 (310)	우리넷	35.86	129.268	경북 경주시 북군동 11-1	SKT1	[지상] 8/8층	경주북군W
01227587622 (311)	우리넷	35.774	129.301	경북 경주시 시래동 347-4	SKT1	[지상] 3/3층	경주시래W
01227500595 (312)	우리넷	36.166	128.98	경북 청송군 현서면 무계리 산 21-14	SKT1	[지상] 1/1층	현서무계W
01227587697 (314)	우리넷	35.803	128.622	대구 달성군 가창면 용계리 12-18	SKT1	[지상] 3/4층	입구맞은편 콘크리트벽면
01227587813 (315)	우리넷	35.755	128.737	경북 경산시 남천면 삼성리 292-11	SKT1	[지상] 1/1층	
01227587798 (316)	우리넷	35.791	128.841	경북 경산시 남산면 경리 448-5	SKT1	[지상] 2/2층	
01231300268 (317)	우리넷	36.977	127.928	충북 충주시 교현동 616-2	SKT1	[지상] 5/5층	배터리 옆
01227587593 (318)	우리넷	35.831	128.194	경북 성주군 수륜면 신파리 62-1	SKT1	[지상] 2/4층	출입문 맞은편
01231300061 (320)	우리넷	35.114	126.78	광주 광산구 복룡동 91-24	SKT1	[지상] 2/2층	밧데리실 앞 콘센트
01227587483 (323)	우리넷	36.35	129.382	경북 영덕군 강구면 삼사리 9-13	SKT1	[지상] 1/1층	기지국
01231300092 (324)	우리넷	36.963	127.871	충북 충주시 대소원면 만정리 195-1	SKT1	[지상] 4/6층	충주대W 옆 벽면 설치
01227728286 (325)	우리넷	37.028	127.918	충북 충주시 동량면 용교리 592	SKT1	[지상] 2/2층	출입문 앞
01227587369 (326)	우리넷	36.926	129.261	경북 울진군 금강송면 삼근리 산 58-3	SKT1	[지상] 1/1층	"서면삼근X, 출입문 우측 벽면"
01227587771 (327)	우리넷	35.911	128.816	경북 경산시 하양읍 금락리 117-20	SKT1	[지상] 5/5층	기지국오른쪽벽면/01227587771
01227587623 (328)	우리넷	36.411	129.368	경북 영덕군 영덕읍 남석리 99-11	SKT1	[지상] 3/3층	영덕남석W 기지국 기둥면
01227587486 (329)	우리넷	36.89	128.733	경북 봉화군 봉화읍 내성리 396-3	SKT2	[지상] 2/2층	출입문 왼쪽 하단
01231300120 (330)	우리넷	36.936	127.691	충북 음성군 음성읍 읍내리309-40	SKT1	[지상] 2/3층	
01231300129 (331)	우리넷	36.989	127.928	충북 충주시 금릉동 720	SKT1	[지상] 4/5층	축전지 옆
01227587341 (332)	우리넷	35.987	128.405	경북 칠곡군 왜관읍 왜관리 347-2	SKT2	[지상] 2/2층	출입문 옆
01231307908 (334)	엔티모아	35.167	129.033	부산 부산진구 당감동 680-15	SKT1	[지하] 1/5층	안전수칙 아래 콘센트
01227587515 (335)	우리넷	35.987	128.405	경북 칠곡군 왜관읍 왜관리 347-2	SKT1	[지상] 1/2층	냉방기3호 옆
01227587666 (336)	우리넷	36.516	129.432	경북 영덕군 축산면 축산리 산 5-2	SKT1	[지상] 1/1층	축산축산W 기지국
01231307992 (339)	엔티모아	35.154	129.021	부산 부산진구 개금동 473-6	SKT1	[지상] 3/4층	출입구 들어가자 마자 왼쪽 아래
01227587681 (340)	우리넷	36.919	128.426	충북 단양군 대강면 용부원리 산 13-1	SKT1	[지상] 5/9층	전송렉뒤 소화설비옆 벽면
01227587103 (343)	우리넷	35.75	129.201	경북 경주시 내남면 이조리 1008-142	SKT1	[지상] 1/1층	입구오른편벽면
01231307479 (344)	엔티모아	35.142	129.034	부산 부산진구 가야동 464-121	SKT1	[지상] 7/9층	전산실 내부
01227587588 (345)	우리넷	36.54	129.405	경북 영덕군 영해면 성내리 512-1	SKT1	[지상] 1/1층	영해성내W 기지국
01227587595 (346)	우리넷	35.896	128.804	경북 경산시 하양읍 대조리 27-11	SKT1	[지상] 1/1층	기지국분전반오른쪽벽면/01227587595
01227587767 (347)	우리넷	35.915	128.821	경북 경산시 하양읍 금락리 480	SKT1	[지상] 3/4층	기지국우측벽면
01227587612 (348)	우리넷	35.81	129.487	경북 경주시 감포읍 전동리 688-1	SKT1	[지상] 1/1층	감포전동W
01231300574 (350)	우리넷	36.61	127.489	충북 청주시 서원구 분평동 1250-24	SKT1	[지상] 2/3층	냉방기2호기 옆
01231307561 (352)	엔티모아	35.537	129.31	울산 남구 신정동 700-4	SKT2	[지상] 5/7층	출입문 우측 5m 벽면
01231300006 (354)	우리넷	35.058	126.518	전남 함평군 함평읍 내교리 579	SKT2	[지상] 1/1층	출입문 전실 RMS 하단
01231307607 (355)	엔티모아	35.568	129.359	울산 북구 진장동 578-1	SKT2	[지상] 1/2층	출입문 우측 대각 벽면 10m
01231307744 (356)	엔티모아	35.568	129.359	울산 북구 진장동 578-1	SKT2	[지상] 2/2층	출입문 우측 벽면 3m
01227721327 (357)	우리넷	34.768	127.696	전남 여수시 둔덕동 475-32	SKT1	[지상] 2/4층	기지국사 안쪽 벽면(통신접지 단자반 하단부)
01227587497 (360)	우리넷	36.008	129.336	경북 포항시 남구 효자동 133-1	SKT2	[지상] 1/2층	출입문 오른쪽 벽면
01227587698 (361)	우리넷	36.235	128.565	경북 군위군 군위읍 서부리 255-14	SKT1	[지상] 3/3층	전송렉 옆 콘센트
01227587493 (362)	우리넷	36.008	129.336	경북 포항시 남구 효자동 133-1	SKT2	[지상] 2/2층	출입문 완쪽 벽면
01231300018 (363)	우리넷	35.156	126.867	광주 서구 쌍촌동 237-4	SKT2	[지상] 2/2층	PM02-01/좌측벽면 7M
01231300028 (365)	우리넷	35.257	126.505	전남 영광군 영광읍 녹사리 609-3	SKT2	[지상] 2/2층	하론H01-02우측2M
01231307735 (369)	엔티모아	35.684	127.916	경남 거창군 거창읍 대평리 1158	SKT2	[지상] 2/2층	벽면 설치
01227587600 (370)	우리넷	36.975	128.649	경북 영주시 부석면 노곡리 산 29-6	SKT1	[지상] 1/1층	축전지실 오른쪽 벽면
01227587093 (371)	우리넷	36.937	128.913	경북 봉화군 춘양면 의양리 349-6	SKT1	[지상] 2/2층	통신접지함 하딘벽
01231300252 (372)	우리넷	36.548	127.431	충북 청주시 서원구 남이면 외천리 397-11	SKT1	[지상] 1/1층	출입문으로 들어와 우측 AC분전반 옆 하단
01231307752 (374)	엔티모아	35.536	129.252	울산 남구 무거동 1005-1	SKT2	[지상] 1/2층	출입문 좌측 벽면(하론옆)
01231322632 (375)	우리넷	36.613	127.476	충북 청주시 서원구 분평동 1087	SKT1	[지상] 3/3층	통신접지단자반 좌측 하단(MPR장비 우측)
01231307872 (376)	엔티모아	35.077	128.99	부산 사하구 구평동 191	SKT1	[지상] 4/7층	출입문 오른쪽
01227588061 (378)	우리넷	34.956	127.535	전남 순천시 조례동 1817-1	SKT1	[지상] 2/3층	기지국 벽면(냉방기 우측)
01227588053 (379)	우리넷	35.191	126.855	광주 광산구 신창동 1089-1	SKT1	[지상] 2/3층	하론소화기 옆
01227587249 (382)	우리넷	36.012	128.707	경북 영천시 신녕면 치산리 산 141-5	SKT1	[지상] 1/1층	출입문 좌측 하단벽면
01227586650 (385)	우리넷	35.218	126.842	광주 광산구 쌍암동 657-2	SKT1	[지상] 6/8층	출입문 옆
01231307618 (386)	엔티모아	35.418	127.872	경남 산청군 금서면 매촌리 95-2	SKT2	[지상] 1/1층	
01227587911 (387)	우리넷	34.934	127.489	전남 순천시 덕월동 464-2	SKT1	[지상] 3/4층	출입문 실내 좌측벽면
01231307976 (388)	엔티모아	35.183	129.106	부산 연제구 연산동 479-7	SKT1	[지상] 8/10층	출입문 정면 설치
01231300189 (389)	우리넷	35.196	126.838	광주 광산구 신창동 1129-2	SKT1	[지상] 6/8층	축전지실
01227588033 (390)	우리넷	34.953	127.485	전남 순천시 남내동 65	SKT1	[지상] 9/9층	국사 내 W장비 앞 벽면
01231307972 (391)	엔티모아	35.191	129.086	부산 연제구 연산동 582-6	SKT1	[지상] 9/9층	출입문 오른쪽 냉방기 옆 설치
01227588077 (392)	우리넷	34.605	127.787	전남 여수시 돌산읍 율림리 443-4	SKT1	[지상] 1/1층	출입구앞 MAIN 분전함 하단 벽면
01231300227 (393)	우리넷	37.132	128.202	충북 제천시 영천동 29	SKT1	[지상] 1/1층	분전반
01231307716 (394)	엔티모아	35.183	129.08	부산 연제구 연산동 702-9	SKT1	[지상] 15/17층	출입문 왼쪽 축전지 환풍기 위 설치
01227587725 (395)	우리넷	35.844	129.233	경북 경주시 동천동 946-6	SKT1	[지상] 1/2층	경주동천W
01227587485 (396)	우리넷	35.842	128.487	대구 달서구 호산동 709-9	SKT1	[지상] 1/2층	입구 좌측 리튬축전지 옆
01231300007 (397)	우리넷	37.182	128.196	충북 제천시 신월동 579	SKT1	[지상] 6/6층	냉방기1호기 옆 벽면 콘센트
01227587471 (398)	우리넷	35.842	128.487	대구 달서구 호산동 709-9	SKT2	[지상] 2/2층	입구 우측 벽면
01227729736 (399)	우리넷	35.19	126.814	광주 광산구 장덕동 1611	SKT1	[지상] 6/7층	냉방기 앞 설치
01231300316 (400)	우리넷	36.968	127.486	충북 음성군 오태로99번길 9	SKT1	[지상] 6/7층	출입문 좌측 앞
01227729488 (401)	우리넷	34.734	127.725	전남 여수시 봉산동 246-11	SKT2	[지상] 2/2층	정류기 RT02-01 죄측3M벽기둥
01231307795 (403)	엔티모아	35.825	127.148	전북 전주시 완산구 서노송동 578-5	SKT1	[지상] 10/10층	기지국내 콘센트
01231307748 (404)	엔티모아	34.975	128.331	경남 고성군 고성읍 동외리 180-1	SKT2	[지상] 2/2층	출입구 정면에서 안쪽으로 정류기 뒷편 설치
01227587031 (405)	우리넷	34.734	127.725	전남 여수시 봉산동 246-11	SKT2	[지상] 1/2층	축전지BA01-02우측3M벽
01231316267 (406)	엔티모아	36.784	127.005	충남 아산시 온천동 299-10	SKT2	[지상] 2/3층	출입문 좌측하단
01227723476 (407)	우리넷	33.248	126.569	제주특별자치도 서귀포시 서귀동 251-1	SKT1	[지상] 12/13층	출입문 옆
01231300551 (408)	우리넷	36.484	127.717	충북 보은군 보은읍 삼산리 156-34	SKT1	[지상] 3/4층	출입문 앞 콘센트 설치
01231300144 (409)	우리넷	36.784	127.005	충남 아산시 온천동 299-10	SKT2	[지상] 3/3층	장비실끝 벽면하단
01231300067 (410)	우리넷	33.265	126.567	제주특별자치도 서귀포시 동홍동 1137-12	SKT1	[지상] 1/4층	출입문 옆
01231300022 (411)	우리넷	33.263	126.616	제주특별자치도 서귀포시 하효동 147-10	SKT1	[지상] 1/4층	출입문 옆
01231300083 (412)	우리넷	35.19	126.824	광주 광산구 수완동 1424	SKT1	[지상] 7/9층	하론소화기 옆
01231307572 (413)	엔티모아	34.867	128.442	경남 통영시 용남면 동달리 851-2	SKT2	[지상] 2/2층	출입문 왼쪽 통신접지단자반 아래
01231307533 (414)	엔티모아	34.867	128.442	경남 통영시 용남면 동달리 851-2	SKT2	[지상] 1/2층	출입구 우측 축전지 뒤 설치
01231308024 (415)	엔티모아	35.173	129.097	부산 수영구 망미동 774-5	SKT1	[지상] 6/5층	냉방기 외쪽 벽 설치
01231300436 (416)	우리넷	36.926	127.474	충북 진천군 이월면 미잠리 87-10	SKT1	[지상] 1/1층	좌측벽면
01231300052 (417)	우리넷	35.208	126.809	광주 광산구 오선동 547-5	SKT1	[지상] 3/4층	뒤쪽 벽ㆍ 접지단자
01231307906 (418)	엔티모아	35.155	129.131	부산 수영구 민락동 110-35	SKT1	[지상] 9/7층	캐비닛형 자동소화기기 왼쪽 설치
01231307672 (419)	엔티모아	34.841	128.42	경남 통영시 서호동 163-14	SKT2	[지상] 3/6층	출입구 죄측 하론 옆
01231308165 (420)	엔티모아	35.242	129.214	부산 기장군 기장읍 대라리 419-15	SKT1	[지상] 2/11층	1X 장비실 내부 책상앞
01231300071 (421)	우리넷	36.198	127.756	충북 영동군 영동읍 오탄리 727-1	SKT2	[지상] 2/2층	냉방기 1호기 좌측
01231307934 (422)	엔티모아	35.167	129.122	부산 수영구 수영동 518	SKT1	[지상] 10/10층	캐비닛형 자동소화기기 왼쪽 설치
01231307547 (423)	엔티모아	35.078	129.063	부산 영도구 동삼동 516-43	SKT1	[지상] 4/4층	지혜관 옥상 실내 기지국 출입문 오른쪽
01231300504 (424)	우리넷	36.195	127.755	충북 영동군 영동읍 오탄리 701	SKT2	[지상] 1/2층	통신접지단자반 아래
01231300333 (426)	우리넷	36.934	127.333	충북 진천군 백곡면 양백리 1-1	SKT1	[지상] 1/1층	정면 우측벽
01231300137 (427)	우리넷	34.92	126.747	전남 나주시 세지면 오봉리 727-179	SKT1	[지상] 1/4층	출입문 앞 벽면
01231307823 (428)	엔티모아	35.153	129.112	부산 수영구 광안동 168-3	SKT1	[지상] 5/13층	기지국현황판 왼쪽 설치
01231307410 (429)	엔티모아	35.071	129.069	부산 영도구 동삼동 480-1	SKT1	[지상] 4/4층	안쪽 화이트보드 옆
01227723653 (430)	우리넷	35.309	127.429	전남 구례군 산동면 시상리 329-1	SKT1	[지상] 1/1층	밤재터널F 도너 Open RACK 뒷편 벽면
01227587834 (431)	우리넷	34.978	127.583	전남 광양시 광양읍 칠성리 138-5	SKT1	[지상] 3/4층	W기지국 뒷편 벽면
01227727556 (432)	우리넷	33.494	126.679	제주 제주시 조천읍 와산리 873-1	SKT1	[지상] 1/1층	
01231307569 (433)	엔티모아	35.078	129.07	부산 영도구 동삼동 317-8	SKT1	[지상] 12/12층	출입문 오른쪽 화이트보드판 밑
01227588038 (434)	우리넷	34.965	127.555	전남 광양시 광양읍 덕례리 1365-24	SKT1	[지상] 1/1층	밧데리 상단 환풍기 옆 벽면
01231300105 (435)	우리넷	34.938	126.712	전남 나주시 세지면 죽동리 227-11	SKT1	[지상] 1/1층	출입문 앞 벽면
01231300367 (436)	우리넷	36.312	127.578	충북 옥천군 옥천읍 문정리 505-3	SKT2	[지상] 2/2층	냉방기3호기 우측
01231307602 (437)	엔티모아	35.249	128.871	경남 김해시 구산동 1070-2	SKT2	[지상] 1/2층	
01231307713 (438)	엔티모아	35.627	129.354	울산 북구 호계동 279-16	SKT2	[지상] 2/3층	출입문 좌측 5M
01231300549 (439)	우리넷	36.312	127.578	충북 옥천군 옥천읍 문정리 505-3	SKT2	[지상] 1/2층	냉방기 1호기 오른쪽
01227587671 (440)	우리넷	35.173	126.808	광주 광산구 월곡동 313-29	SKT1	[지상] 4/4층	입구 책상옆
01231300314 (441)	우리넷	37.146	128.213	충북 제천시 청전동 134-6	SKT2	[지상] 2/2층	H02-01하론 좌측 1M
01231300281 (442)	우리넷	37.146	128.213	충북 제천시 청전동 134-6	SKT2	[지상] 1/2층	냉방기 A01-02 우측 2M
01231300233 (443)	우리넷	36.99	127.934	충북 충주시 연수동 659-2	SKT2	[지상] 2/2층	통신접지반 아래
01231307278 (444)	엔티모아	35.632	129.35	울산 북구 신천동 318-7	SKT2	[지상] 4/4층	출입문 우측 벽면 8M
01227729624 (445)	우리넷	35.216	126.849	광주 광산구 쌍암동 694-136	SKT2	[지상] 2/2층	출입문 좌측 하단 콘센트
01231307601 (446)	엔티모아	35.56	129.337	울산 중구 반구동 100-4	SKT2	[지상] 3/3층	출입문 우측벽면 2M
01227587448 (447)	우리넷	36.11	128.419	경북 구미시 황상동 321-2	SKT1	[지상] 1/2층	
01231307512 (448)	엔티모아	35.56	129.337	울산 중구 반구동 100-4	SKT2	[지상] 3/3층	출입문 우측벽면 2M
01227587443 (449)	우리넷	36.11	128.419	경북 구미시 황상동 321-2	SKT2	[지상] 2/2층	
01231300049 (450)	우리넷	36.777	126.494	충남 서산시 수석동195	SKT2	[지상] 1/2층	출입문 앞
01231300309 (451)	우리넷	36.777	126.494	충남 서산시 수석동 195	SKT2	[지상] 2/2층	출입문 앞
01227587470 (452)	우리넷	34.572	126.609	전남 해남군 해남읍 해리 154-1	SKT2	[지상] 1/1층	출입문벽좌측하단
01227587293 (453)	우리넷	36.138	128.443	경북 구미시 산동면 봉산리 387-16	SKT2	[지상] 3/3층	
01227587508 (454)	우리넷	36.138	128.443	경북 구미시 산동면 봉산리 387-16	SKT1	[지상] 2/3층	
01231307770 (455)	엔티모아	35.086	128.88	부산 강서구 신호동 214-12	SKT2	[지상] 3/3층	접지단자반밑
01227587575 (456)	우리넷	34.873	127.706	전남 여수시 묘도동 924-1	SKT1	[지상] 1/1층	벽면
01231300155 (457)	우리넷	36.437	126.797	충남 청양군 청양읍 벽천리 141-2	SKT2	[지상] 1/2층	통신접지단자반 밑
01231300283 (458)	우리넷	36.437	126.797	충남 청양군 청양읍 벽천리 141-2	SKT2	[지상] 2/2층	EPS실 앞
01231307626 (459)	엔티모아	35.323	129.257	부산 기장군 장안읍 반룡리 689-1	SKT1	[지상] 1/1층	출입문 우측
01231307771 (460)	엔티모아	35.315	129.173	부산 기장군 매학리 136-3	SKT1	[지상] 2/4층	좌측 축전지
01231307563 (461)	엔티모아	35.23	129.157	부산 해운대구 반송동 897	SKT1	[지상] 7/7층	출입문 왼쪽문 안 소화전 옆설치
01231307275 (462)	엔티모아	35.208	129.123	부산 해운대구 반여동 885-3	SKT1	[지상] 2/5층	출입문 옆 설치
01231315852 (463)	엔티모아	36.694	126.831	충남 예산군 예산읍 산성리 635	SKT2	[지상] 1/2층	출입문 우측 벽
01227587232 (464)	우리넷	35.934	128.305	경북 성주군 성주읍 삼산리 23-1	SKT2	[지상] 1/1층	접지단자반 아래
01231315583 (466)	엔티모아	35.821	127.141	전북 전주시 완산구 고사동 296-1	SKT1	[지상] 3/5층	
01231300530 (467)	우리넷	36.707	127.73	충북 괴산군 청안면 부흥리 166-1	SKT2	[지상] 1/1층	통신접지단자반 하단 벽
01227723549 (468)	우리넷	35.187	126.908	광주광역시 북구 오치동957-12	SKT2	[지상] 2/2층	책상엎벽콘센트
01231300299 (469)	우리넷	36.84	127.129	충남 천안시 서북구 성성동 670	SKT2	[지상] 6/6층	상면 H열 12번 전안성성wt2 2.7M엡 벽면
01231300300 (470)	우리넷	36.694	126.831	충남 예산군 예산읍 산성리 635	SKT2	[지상] 2/2층	하론 02-02 좌측 벽
01231300177 (471)	우리넷	36.885	126.733	충남 당진시 송악읍 봉교리 336-28	SKT2	[지상] 2/2층	냉방기 옆
01231307782 (472)	엔티모아	35.338	128.193	경남 의령군 칠곡면 신포리 549-1	SKT2	[지상] 1/1층	
01231300121 (473)	우리넷	36.84	127.129	충남 천안시 서북구 성성동 670	SKT2	[지상] 5/6층	냉방기 A05-01 빈대편 벽면(냉방기와 11M이격거리)
01231300113 (474)	우리넷	36.659	126.687	충남 홍성군 홍북읍 신경리 883	SKT2	[지상] 1/2층	하론 H01-02 좌측 벽
01227587565 (476)	우리넷	35.728	128.273	경북 고령군 대가야읍 장기리 224	SKT2	[지상] 2/2층	출입문 왼쪽 축전지 가대 벽면
01231307757 (477)	엔티모아	35.196	128.816	경남 김해시 신문동 497-7	SKT2	[지상] 2/2층	
01231300014 (478)	우리넷	36.889	126.638	충남 당진시 읍내동 1080	SKT2	[지상] 1/2층	
01231300104 (479)	우리넷	36.659	126.687	충남 홍성군 홍북읍 신경리 883	SKT2	[지상] 2/2층	하론 H02-02 좌측 벽
01227587243 (480)	우리넷	35.694	128.444	대구 달성군 현풍읍 하리 115-6	SKT2	[지상] 1/2층	출입문 오른쪽 벽면
01231307403 (481)	엔티모아	35.275	128.348	경남 함안군 군북면 소포리 1335-4	SKT2	[지상] 1/1층	
01231314414 (482)	엔티모아	35.949	126.954	전북 익산시 남중동 321-50	SKT1	[지상] 2/4층	기지국 스마트워킹센터내벽면
01227728357 (483)	우리넷	35.187	126.908	광주광역시 북구 오치동957-12	SKT2	[지상] 1/2층	하론H01-01좌측벅
01227587974 (484)	우리넷	36.889	126.638	충남 당진시 읍내동 1080	SKT2	[지상] 2/2층	
01231300066 (485)	우리넷	34.829	127.359	전남 보성군 벌교읍 영등리 1331-2	SKT1	[지상] 1/1층	냉방기 우측 옆 변면
01231307207 (486)	엔티모아	35.437	129.31	울산 울주군 온산읍 덕신리 191-3	SKT2	[지상] 2/3층	출입문 우측벽면 5M
01231300208 (487)	우리넷	36.602	126.676	충남 홍성군 홍성읍 대교리 715	SKT2	[지상] 2/2층	축전실 출입구 우측 벽
01231307877 (488)	엔티모아	35.428	126.689	전북 고창군 고창읍 덕산리 299	SKT1	[지상] 1/1층	접지반 밑 벽면 콘센트
01231307755 (489)	엔티모아	35.438	129.306	울산 울주군 온산읍 덕신리 1349-8	SKT2	[지상] 2/4층	출압문 우측벽면 1M
01227587405 (490)	우리넷	35.694	128.444	대구 달성군 현풍읍 하리 115-6	SKT1	[지상] 2/2층	하론 2호기 왼쪽 벽면
01231315679 (491)	엔티모아	35.81	127.088	전북 전주시 완산구 효자동2가 1080	SKT1	[지상] 6/6층	진리관
01231300017 (492)	우리넷	36.959	126.698	충남 당진시 송산면 유곡리 108-1	SKT2	[지상] 2/2층	
01231315754 (493)	엔티모아	35.959	126.959	전북 익산시 신동 803-6	SKT1	[지상] 2/2층	기지국내 전송랙 AC콘센트
01231308408 (494)	엔티모아	35.42	126.56	전북 고창군 무장면 성내리 30-5	SKT1	[지상] 1/1층	AC 매인분전반 우측 콘센트
01231300153 (495)	우리넷	36.706	127.147	세종특별자치시 소정면 운당리 197-1	SKT1	[지상] 1/1층	줄입구 하론 우측 콘센트
01231308149 (496)	엔티모아	35.342	126.599	전북 고창군 대산면 매산리 155-4	SKT1	[지상] 1/1층	출입문 우측벽면 콘센트
01231300141 (497)	우리넷	34.622	127.287	전남 고흥군 고흥읍 옥하리 산 1-14	SKT1	[지상] 1/1층	급배기 옆 벽면
01231315847 (498)	엔티모아	35.836	127.101	전북 전주시 완산구 효자동3가 1414-9	SKT1	[지상] 1/3층	
01231308278 (500)	엔티모아	35.53	126.52	전북 고창군 심원면 만돌리 1402	SKT1	[지상] 1/1층	출입문 우측 벽면 콘센트
01227579391 (501)	우리넷	36.431	128.668	경북 의성군 단촌면 세촌리 744-1	SKT1	[지상] 1/1층	메인분전반옆 설치
01231315713 (502)	엔티모아	35.83	127.116	전북 전주시 완산구 서신동 805	SKT1	[지상] 6/7층	
01231308216 (503)	엔티모아	35.518	126.702	전북 고창군 흥덕면 흥덕리 262-3	SKT1	[지상] 1/1층	통신접지단자반 좌측 하단 벽 콘센트
01231315652 (504)	엔티모아	35.947	126.986	전북 익산시 신흥동 405-28	SKT1	[지상] 1/1층	기지국내 정류기뒤 벽면
01227588055 (505)	우리넷	34.8	127.654	전남 여수시 주삼동 586-1	SKT1	[지상] 1/2층	냉방기 1호기 좌측 벽면
01231307396 (506)	엔티모아	36.072	126.96	전북 익산시 함열읍 와리 824	SKT1	[지상] 1/1층	기지국내 벽면
01231308154 (507)	엔티모아	36.01	126.941	전북 익산시 황등면 동연리 2	SKT1	[지상] 1/1층	기지국내 벽면
01227587513 (508)	우리넷	35.902	128.613	대구 북구 산격동 478-44	SKT1	[지상] 1/3층	냉방기 1호기 우측 벽면
01231315586 (509)	엔티모아	35.836	127.153	전북 전주시 덕진구 인후동1가 772-1	SKT1	[지상] 5/5층	
01231315872 (510)	엔티모아	35.834	127.12	전북 전주시 완산구 서신동 970-4	SKT1	[지상] 7/8층	
01231308217 (511)	엔티모아	35.658	127.267	전라북도 임실군 신평면 대리 269	SKT1	[지상] 1/1층	배터리 앞 우측 벽면
01231315681 (512)	엔티모아	35.849	127.158	전북 전주시 우아동3가746-36	SKT1	[지상] 6/6층	
01231315706 (513)	엔티모아	35.959	126.769	전북 군산시 개정동 12-6	SKT1	[지상] 1/2층	
01231308130 (516)	엔티모아	35.848	127.118	전북 전주시 덕진구 덕진동2가 167-369	SKT1	[지상] 4/4층	하론옆
01231315762 (517)	엔티모아	35.911	126.754	전북 군산시 회현면 대정리 345	SKT1	[지상] 1/2층	
01231315770 (518)	엔티모아	35.722	126.731	전북 부안군 부안읍 서외리 520	SKT1	[지상] 3/5층	
01231315826 (519)	엔티모아	35.86	127.082	전북 전주시 덕진구 팔복동2가 739-1	SKT1	[지상] 1/1층	냉방기앞
01231307620 (520)	엔티모아	34.936	128.079	경남 사천시 벌리동 480-1	SKT1	[지상] 4/8층	벽면
01227587159 (522)	우리넷	35.902	128.613	대구 북구 산격동 478-44	SKT1	[지상] 3/3층	소화설비 우측 벽면
01231308080 (524)	엔티모아	35.877	127.029	전북 전주시 덕진구 남정동 43-5	SKT1	[지상] 1/1층	접지단자옆
01227588050 (525)	우리넷	35.14	126.801	광주 광산구 송정동 591	SKT2	[지상] 2/7층	기둥
01231321559 (527)	엔티모아	37.519	126.89	서울 영등포구 문래동3가 82-29	SKT2	[지상] 11/13층	A11-5 좌측 외벽
01231315819 (528)	엔티모아	35.908	127.754	전북 무주군 설천면 심곡리575	SKT1	[지상] 1/2층	
01231321549 (529)	엔티모아	37.519	126.89	서울 영등포구 문래동3가 83-4	SKT2	[지상] 2/10층	H02-1 우측 외벽
01227587347 (530)	우리넷	35.647	128.74	경북 청도군 청도읍 고수리 132-4	SKT1	[지상] 1/2층	AC분전반 앞
01231307705 (532)	엔티모아	35.314	128.746	경남 김해시 진영읍 본산리 302-17	SKT2	[지상] 3/3층	3층분전반 옆
01231307523 (533)	엔티모아	35.314	128.746	경남 김해시 진영읍 본산리 302-17	SKT1	[지상] 2/3층	2층분전반 옆
01231307794 (534)	엔티모아	35.088	128.097	경남 사천시 사천읍 정의리 423-21	SKT2	[지상] 1/2층	RA01-01 정류기 뒤 벽면
01231307574 (535)	엔티모아	35.088	128.097	경남 사천시 사천읍 정의리 423-21	SKT2	[지상] 2/2층	축전지실 안 콘센트벽면
01231300524 (536)	우리넷	36.171	127.785	충북 영동군 영동읍 계산리 653-7	SKT1	[지상] 1/4층	영동2기지국 MBRS-1200 맞은편 벽면
01231315891 (537)	엔티모아	35.999	127.79	전북 무주군 설천면 소천리 680-1	SKT1	[지상] 1/1층	
01231315662 (538)	엔티모아	35.712	126.672	전북 부안군 상서면 통정리 62-1	SKT1	[지상] 1/1층	
01231315844 (539)	엔티모아	35.969	126.622	전북 군산시 소룡동 24	SKT1	[지상] 4/5층	
01231315702 (540)	엔티모아	35.97	126.737	전북 군산시 조촌동 856-10	SKT1	[지상] 3/6층	출입문에서 왼쪽 벽면
01227587649 (541)	우리넷	36.322	128.648	경북 의성군 봉양면 분토리 962-3	SKT1	[지상] 1/1층	AC분전반 밑 콘센트
01231307306 (542)	엔티모아	34.927	128.072	경남 사천시 선구동 58-35	SKT1	[지상] 2/4층	5G분전반 밑
01231315771 (543)	엔티모아	35.925	126.645	전북 군산시 옥서면 옥봉리 62-5	SKT1	[지상] 1/1층	
01231315856 (544)	엔티모아	35.964	126.702	전북 군산시 나운동 100-14	SKT1	[지상] 6/7층	출입문 맞은편 벽면
01231315587 (545)	엔티모아	35.705	126.586	전북 부안군 하서면 백련리 산 142-8	SKT1	[지상] 1/1층	
01231321626 (547)	엔티모아	37.496	126.856	서울 구로구 개봉동 353-30	SKT1	[지하] 1/3층	비상계단 죄측 외벽
01231321527 (548)	엔티모아	37.496	126.856	서울 구로구 개봉동 353-30	SKT2	[지상] 1/3층	BIT실 앞 우측 외벽
01227728360 (549)	우리넷	35.113	126.852	광주 서구 매월동 492-7	SKT2	[지상] 2/2층	출입문 우측에서 끝쪽 13m
01231315814 (550)	엔티모아	35.945	126.686	전북 군산시 미룡동 879-1	SKT1	[지상] 2/5층	
01231321636 (551)	엔티모아	37.496	126.856	서울 구로구 개봉동 353-30	SKT1	[지상] 3/3층	H03-01 죄측 오벽
01231321526 (552)	엔티모아	37.496	126.856	서울 구로구 개봉동 353-30	SKT2	[지상] 2/3층	BIT실 우측 외벽
01231308323 (553)	엔티모아	35.502	126.793	전북 정읍시 입암면 천원리 108-2	SKT1	[지상] 1/1층	출입구 우측 전원함
01227588060 (554)	우리넷	34.529	127.137	전남 고흥군 도양읍 봉암리 2695-9	SKT1	[지상] 2/3층	축전지 뒷편 벽면
01231307560 (555)	엔티모아	35.191	128.066	경남 진주시 이현동 21-3	SKT1	[지상] 4/5층	LTE전원함 옆
01227587156 (556)	우리넷	35.873	128.712	대구 동구 각산동 921-12	SKT1	[지상] 1/3층	출입문 우측
01231315756 (557)	엔티모아	35.973	126.703	전북 군산시 문화동 913-4	SKT1	[지상] 2/4층	출입문 맞은편 벽면
01227728961 (558)	우리넷	35.306	126.781	전남 장성군 장성읍 기산리 477-15	SKT2	[지상] 2/2층	책상옆죄측벽
01227587742 (559)	우리넷	36.268	128.677	경북 의성군 금성면 대리리 411-4	SKT1	[지상] 1/1층	W기지국 뒷편 벽면
01231307584 (560)	엔티모아	35.178	128.064	경남 진주시 신안동 582-4	SKT1	[지하] 1/6층	하론소화기옆 벽면
01231308368 (561)	엔티모아	35.493	126.928	전북 정읍시 내장동 46-8	SKT1	[지상] 4/4층	전원분전반 옆 전원함
01231308164 (562)	엔티모아	36.012	127.662	전북 무주군 무주읍 읍내리464-3	SKT1	[지상] 3/3층	
01231307927 (564)	엔티모아	35.132	129.095	부산 남구 대연동 1724-2	SKT2	[지상] 2/2층	출입문 죄측 옆 _냉방기 엽 벽면콘센트
01231300034 (565)	우리넷	35.306	126.781	전남 장성군 장성읍 기산리 477-15	SKT2	[지상] 1/2층	AC분전반우측3M벽
01231307911 (566)	엔티모아	35.164	128.912	부산 강서구 강동동 3758-3	SKT1	[지상] 1/2층	기지국 현황 판 밑 콘센트
01231307619 (567)	엔티모아	35.195	128.078	경남 진주시 봉곡동 6-21	SKT1	[지상] 2/5층	전윈분전함옆
01227587878 (568)	우리넷	34.554	127.386	전남 고흥군 포두면 옥강리 863-3	SKT1	[지상] 1/1층	W기지국 뒷편 벽면
01227587534 (569)	우리넷	35.873	128.712	대구 동구 각산동 921-12	SKT2	[지상] 2/3층	AC분전반 좌측
01231308314 (570)	엔티모아	35.566	126.852	전북 정읍시 수성동 559-8	SKT1	[지상] 5/6층	급배가 옆 벽면
01231307910 (571)	엔티모아	35.474	127.503	전북 남원시 산동면 부절리 2379	SKT1	[지상] 1/1층	기지국 내부 좌측벽면 설치
01231308075 (573)	엔티모아	35.132	129.095	부산 남구 대연동 1724-2	SKT2	[지상] 1/2층	
01231308176 (574)	엔티모아	35.413	127.391	전북 남원시 도통동 538-4	SKT1	[지상] 4/4층	AC분전반 옆 콘센트
01231308226 (575)	엔티모아	35.575	126.843	전북 정읍시 연지동 343-47	SKT1	[지상] 5/5층	전원분전반 옆 콘센트
01231307456 (576)	엔티모아	35.193	128.085	경남 진주시 동성동 2-1	SKT1	[지상] 8/8층	입구벽면
01231321676 (577)	엔티모아	37.497	126.992	서울 서초구 반포동 612-135	SKT1	[지하] 1/3층	HB1-02 앞 죄측 외벽
01231307570 (578)	엔티모아	35.177	128.091	경남 진주시 주약동 156-4	SKT1	[지상] 3/6층	에어콕벽면
01231321460 (579)	엔티모아	37.497	126.992	서울 서초구 반포동 612-135	SKT1	[지상] 2/4층	202호 출입구 H02-01 좌측
01231308316 (580)	엔티모아	35.58	126.854	전북 정읍시 수성동 945-1	SKT1	[지상] 3/3층	축전지실 안쪽 콘센트
01227587754 (581)	우리넷	34.605	127.28	전남 고흥군 고흥읍 남계리 1042	SKT2	[지상] 2/2층	중님국 2층 우측 전송장비 뒷 벽면
01231308354 (582)	엔티모아	35.593	126.85	전북 정읍시 하북동 608	SKT1	[지상] 1/2층	전원분전반 옆 콘센트
01231308317 (583)	엔티모아	35.408	127.382	전북 남원시 하정동 8-2	SKT1	[지상] 2/3층	출입구 왼쪽끝 벽면 콘센트(하론 옆)
01231308356 (585)	엔티모아	35.421	127.393	전북 남원시 도통동 498-7	SKT1	[지상] 2/3층	출입구 오른쪽 끝 책상옆 콘센트
01231307419 (586)	엔티모아	35.177	128.117	경남 진주시 상평동 197-123	SKT1	[지상] 4/5층	에어콘벽면
01231315857 (587)	엔티모아	35.786	127.13	전북 전주시 완산구 평화동2가 889-1	SKT1	[지상] 6/7층	
01231308211 (588)	엔티모아	35.854	126.817	전북 김제시 만경읍 만경리 465-5	SKT1	[지상] 1/1층	기지국 내부벽면
01231308200 (589)	엔티모아	35.8	126.886	전북 김제시 요촌동 209-1	SKT1	[지상] 4/4층	기지국 내부벽면
01231308406 (590)	엔티모아	35.479	126.928	전북 순창군 복흥면 서마리 720-8	SKT1	[지상] 1/1층	소화기기 옆 벽면
01231315739 (591)	엔티모아	35.812	127.147	전북 전주시 완산구 전동 295-5	SKT1	[지상] 2/4층	
01231315859 (592)	엔티모아	35.802	127.148	전북 전주시 완산구 서서학동 359	SKT1	[지상] 3/6층	
01227587349 (593)	우리넷	36.551	128.996	경북 청송군 진보면 추현리 산 81-1	SKT1	[지상] 1/1층	냉방기 2호기 옆
01231315634 (594)	엔티모아	35.788	126.998	전북 김제시 금구면 용지리 437-3	SKT1	[지상] 1/1층	기지국 내부벽면
01231300446 (595)	우리넷	37.65	127.076	서울 노원구 중계동 359-14	SKT1	[지상] 3/10층	"출입문 옆, 화재비상등 옆"
01231308381 (596)	엔티모아	35.382	127.223	전북 남원시 대강면 입암리 591	SKT1	[지상] 1/1층	출입구 우측 벽면 콘센트
01231315782 (597)	엔티모아	35.8	127.189	전북 전주시 완산구 색장동 329-1	SKT1	[지상] 1/1층	
01231300363 (598)	우리넷	37.543	126.952	서울 마포구 신공덕동 167	SKT1	[지상] 30/30층	출입문앞
01231300185 (599)	우리넷	37.685	127.045	서울 도봉구 도봉동 560-19	SKT1	[지상] 3/5층	베란다 문 옆
01231300364 (600)	우리넷	37.674	127.054	서울 노원구 상계동 1049-18	SKT1	[지상] 5/6층	기지국 가장 안쪽 냉방기 앞
01231315750 (601)	엔티모아	35.717	126.976	전북 김제시 금산면 구월리 449-4	SKT1	[지상] 1/1층	기지국내 벽면
01231300237 (602)	우리넷	37.547	126.943	서울 마포구 대흥동 206	SKT1	[지상] 5/6층	
01231300376 (603)	우리넷	37.565	127.012	서울 중구 신당동 250-17	SKT1	[지상] 4/9층	냉방기와 펨토 설치부위 사이 부착
01231316140 (604)	우리넷	37.578	126.971	서울 종로구 자하문로 30	SKT1	[지하] 1/8층	축전지실 내부
01227729687 (605)	우리넷	36.216	127.894	충북 영동군 황간면 노근리 13-6	SKT1	[지상] 1/1층	하론 H01-01 우측 벽
01231315737 (606)	엔티모아	35.767	127.377	전북 진안군 진안읍 연장리 842-1	SKT1	[지상] 1/1층	냉방기 옆
01227729586 (607)	우리넷	34.979	127.582	전남 광양시 광양읍 칠성리 900-7	SKT2	[지상] 2/3층	칠성중심굽 2층 냉방기 옆 벽면
01231300435 (608)	우리넷	37.518	126.977	서울 용산구 이촌동 300-21	SKT1	[지상] 5/5층	출입구 정면 콘센트
01231300084 (610)	우리넷	34.944	127.534	전남 순천시 해룡면 상삼리 475-1	SKT2	[지상] 2/2층	정류기RT02-01우측5M벽
01231307978 (611)	엔티모아	35.781	127.419	전북 진안군 진안읍 군하리 355-4	SKT2	[지상] 2/2층	분전반 옆
01231300149 (612)	우리넷	36.367	127.736	충북 옥천군 청성면 도장리 378	SKT1	[지상] 1/1층	기지국 실내 AC 분전함 좌측 콘센트
01231316251 (613)	우리넷	37.57	126.972	서울 종로구 신문로1가 58-14	SKT1	[지상] 2/5층	기지국 복도 좁은길설치
01231300302 (614)	우리넷	37.53	126.968	서울 용산구 한강로2가 314-1	SKT1	[지상] 13/19층	출입문 옆
01231321612 (615)	엔티모아	37.603	126.657	인천 서구 마전동 913-7	SKT2	[지상] 1/2층	
01231300087 (616)	우리넷	34.94	127.685	전남 광양시 중동 1374-8	SKT2	[지상] 2/2층	광양중심국 2층 _입문 우측벽면(휴대용조명등아래)
01231307498 (617)	엔티모아	35.684	127.916	경남 거창군 거창읍 대평리 1156	SKT1	[지상] 2/5층	중계기 가대에 시설
01231321662 (618)	엔티모아	37.603	126.657	인천 서구 마전동 913-7	SKT2	[지상] 2/2층	
01231300077 (619)	우리넷	34.944	127.534	전남 순천시 해룡면 상삼리 475-1	SKT2	[지상] 1/2층	1층분전반우측3M
01231316275 (620)	우리넷	37.581	126.926	서울 서대문구 홍은동 400-9	SKT1	[지상] 5/6층	가좌로W
01231300402 (621)	우리넷	37.556	126.976	서울 중구 남대문로5가267	SKT1	[지상] 20/20층	기지국 내부 왼쪽 벽면
01231308399 (622)	엔티모아	35.36	127.146	전북 순창군 순창읍 가남리 304-45	SKT1	[지상] 1/1층	좌측 배터리 옆
01231307227 (623)	엔티모아	35.689	127.909	경남 거창군 거창읍 상림리 41-6	SKT1	[지상] 3/4층	중간 좌측벽면에 설치
01227728358 (624)	우리넷	37.593	127.001	서울 성북구 성북동 155-15	SKT1	[지상] 4/5층	AC분전반 옆 벽면
01231300173 (626)	우리넷	36.478	127.704	충북 보은군 수한면 발산리 99-3	SKT2	[지상] 2/2층	FDF 좌측 벽
01231322535 (627)	엔티모아	37.443	129.176	강원 삼척시 정상동 476-4	SKT2	[지상] 1/2층	1층 5G국사 출입문 우측
01231300468 (628)	우리넷	37.535	126.997	서울 용산구 한남동 737-28	SKT1	[지상] 16/16층	출입문 우측 벽
01231300372 (629)	우리넷	37.534	126.96	서울 용산구 원효로158	SKT1	[지상] 8/13층	출입문 우측
01231307833 (630)	엔티모아	35.102	129.021	부산 중구 부평동4가 52-3	SKT1	[지상] 6/14층	접지단자함_
01227587455 (631)	우리넷	36.671	129.099	경북 영양군 영양읍 서부리 산 36	SKT1	[지상] 1/1층	출입문 왼편 하단
01231300327 (632)	우리넷	37.548	127.108	서울 광진구 광장동 148-11	SKT1	[지상] 3/6층	첫째 랙 기둥 설치
01231300394 (633)	우리넷	37.61	127.005	서울 성북구 정릉동 704-12	SKT1	[지상] 2/7층	기지국내부 중앙돌기둥
01231321672 (634)	엔티모아	37.514	127.062	서울 강남구 삼성동 108-10	SKT2	[지하] 1/10층	RMS 뒷편 외벽
01231315802 (636)	엔티모아	35.839	126.905	전북 김제시 흥사동 483-14	SKT1	[지상] 1/1층	기지국내 벽면
01227587583 (637)	우리넷	34.979	127.483	전남 순천시 가곡동 967-3	SKT2	[지상] 1/2층	하론Ho1-01좌측2M벽
01227588045 (638)	우리넷	34.757	127.709	전남 여수시 문수동 82-5	SKT1	[지상] 3/3층	문수동기지국 급배기 엽 벽면
01231322504 (640)	우리넷	37.566	126.994	서울 중구 을지로3가 259-1	SKT1	[지상] 10/15층	캐비넷형 자동소화기기옆
01231321586 (642)	엔티모아	37.634	127.213	경기 남양주시 금곡동 154-27	SKT1	[지상] 3/6층	장비실 콘센트
01231300070 (643)	우리넷	37.61	127.077	서울 중랑구 묵동 239-77	SKT1	[지상] 4/9층	먹골
01231321777 (644)	엔티모아	37.515	127.065	서울 강남구 삼성동 109-8	SKT1	[지상] 3/10층	출입문 우측 외벽
01231300065 (645)	우리넷	34.755	127.725	전남 여수시 연등동 727-2	SKT1	[지상] 2/3층	연등동기지국 2층 국사내 죄측벽면
01231308031 (648)	엔티모아	35.114	129.036	부산시 동구 초량동 1056-2	SKT1	[지상] 6/10층	출입문에서 직직 소화기기 옆
01231300027 (649)	우리넷	34.739	127.743	전남 여수시 고소동 25	SKT1	[지상] 1/2층	동문동기지국 밧데리실 환풍기 상단 벽면
01231307551 (650)	엔티모아	35.092	129.065	부산 영도구 청학동 102-5	SKT1	[지상] 3/4층	출입구 왼쪽 화이트보드 옆
01231307989 (651)	엔티모아	35.423	127.62	전북 남원시 산내면 대정리 805-1	SKT1	[지상] 12/13층	기지국 내부 우측벽면 설치
01231308087 (652)	엔티모아	35.76	127.599	전북 장수군 계북면 매계리 498-8	SKT1	[지상] 1/1층	AC/DC 컨버터 장치(106라인)
01231321781 (653)	엔티모아	37.498	126.985	서울 서초구 방배동 750-20	SKT2	[지상] 5/5층	H05-02 좌측외벽
01231322256 (654)	엔티모아	37.489	129.109	강원 동해시 동회동 65	SKT2	[지상] 1/2층	1층 리튬축전지 후면 벽면 설치
01231308237 (655)	엔티모아	35.464	127.438	전북 남원시 산동면 목동리 365	SKT1	[지상] 1/1층	분전함 옆 콘센트
01231308327 (656)	엔티모아	35.439	127.38	전북 남원시 용정동 583-2	SKT1	[지상] 1/1층	에어컨 옆 콘센트
01231300389 (658)	우리넷	37.536	127.082	서울 광진구 자양동 219-5	SKT1	[지상] 4/6층	분전반 쪽 콘센트 사용
01231322341 (660)	엔티모아	37.491	127.987	강원 횡성군 횡성읍 읍상리 386-1	SKT1	[지상] 3/5층	분전함쪽 벽면에 설치
01231300031 (661)	우리넷	37.588	127.017	서울 성북구 삼선동5가 334	SKT1	[지상] 4/8층	기지국 출입 후 오른쪽 벽면 하단에 설치
01231300425 (662)	우리넷	37.547	126.971	서울 용산구 한강대로329	SKT1	[지상] 4/10층	출입구 우측
01231315755 (663)	엔티모아	35.727	127.229	전북 완주군 상관면 용암리 483-1	SKT1	[지상] 1/1층	
01231316488 (664)	우리넷	37.561	126.802	서울 강서구 방화동 886-8	SKT1	[지하] 4/4층	
01231322521 (666)	엔티모아	37.883	128.825	강원 강릉시 주문진읍 교항리 108-3	SKT1	[지상] 4/4층	출입문 앞 좌측 상단 시설
01231316454 (667)	우리넷	37.581	126.906	서울 은평구 증산동 177-3	SKT1	[지상] 3/4층	증산W
01231316159 (668)	우리넷	37.572	126.805	서울 강서구 양천로 22	SKT1	[지하] 2/2층	
01231322583 (669)	우리넷	37.564	126.903	서울 마포구 성산동 592-6	SKT2	[지하] 3/3층	마포구청역 통신실 왼쪽 벽면
01231316516 (670)	우리넷	37.517	126.894	서울 영등포구 문래동3가 68-1	SKT1	[지하] 2/2층	영구청향 승강장 8-2 통신실 우측아래 벽콘센트
01231315787 (671)	엔티모아	35.862	127.25	전북 완주군 소양면 해월리 424-4번지	SKT1	[지상] 1/1층	
01231316455 (672)	우리넷	37.568	126.841	서울 강서구 가양동 150-34	SKT1	[지하] 2/2층	B2 이동통신실 내 하론 우측 아래 벽단자 설치
01231322190 (673)	엔티모아	37.803	128.901	강원 강릉시 안현동 107-5	SKT1	[지상] 7/7층	출입문 우측 외부 급전선 위 시설
01231316417 (675)	우리넷	37.514	126.882	서울 구로구 신도림동 271-94	SKT1	[지하] 2/4층	냉방기 옆 좌측하단부
01231300239 (677)	우리넷	37.53	127.12	서울 송파구 풍납동 490-16	SKT1	[지하] 2/3층	통신실 E3 기지국 시설
01231300418 (680)	우리넷	37.481	126.997	서울 서초구 방배동 912-14	SKT1	[지하] 2/2층	B2 방배역 기지국(사당향 승강장 8-3)
01231300521 (681)	우리넷	37.516	127.113	서울 송파구 방이동 44-3	SKT1	[지상] 15/20층	냉방기 옆 벽면
01231307639 (682)	엔티모아	35.933	127.123	전북 완주군 삼례읍 수계리 404-31	SKT2	[지상] 1/1층	BT01-01-2조 근처 벽면콘센트
01227587255 (683)	우리넷	34.771	127.074	전남 보성군 보성읍 주봉리 244-4	SKT2	[지상] 1/1층	출입문좌측1M벽
01231322551 (684)	엔티모아	37.761	128.901	강원 강릉시 옥천동 332-1	SKT1	[지상] 2/9층	출입문앞 우측 시설
01231300180 (685)	우리넷	37.476	126.981	서울 관악구 남현동 1130-1	SKT1	[지하] 2/2층	사당_2 낙성대향승강장 4-4 통신실 안
01231316494 (686)	우리넷	37.571	126.961	서울 종로구 송월길 159	SKT1	[지하] 1/6층	출입문 앞
01231307204 (687)	엔티모아	35.523	127.728	경남 함양군 함양읍 교산리 968-6	SKT1	[지상] 4/8층	출입구 문 우측 콘센트
01231322511 (688)	엔티모아	38.204	128.591	강원 속초시 중앙동 475-18	SKT1	[지상] 4/8층	하론 우측 시설
01231316389 (689)	우리넷	37.55	126.865	서울 양천구 목동 605-22	SKT1	[지하] 1/2층	B1 이동통신실 내 우측 벽단자 설치
01231307371 (690)	엔티모아	35.728	128.115	경남 합천군 가야면 매안리 286-5	SKT1	[지상] 1/1층	출입구 좌측 책상의 설치
01231322475 (691)	엔티모아	37.756	128.912	강원 강릉시 입암동 506-9	SKT1	[지상] 2/2층	축전지 위 시설
01231307382 (692)	엔티모아	35.19	128.195	경남 진주시 문산읍 상문리 325-1	SKT1	[지상] 1/1층	"입구좌측 벽면, 컨센트 옆"
01231300055 (695)	우리넷	37.618	126.921	서울 은평구 불광동 487-2	SKT1	[지하] 1/5층	연신내역 6호선 역무실
01231322608 (696)	엔티모아	37.555	129.117	강원 동해시 묵호진동 4-102	SKT1	[지상] 1/1층	
01231316301 (697)	우리넷	37.557	126.86	서울 강서구 등촌동 666-40	SKT2	[지하] 1/3층	B1 이동통신실 내 하론 우측 아래 벽단자 설치
01231300328 (698)	우리넷	37.602	127.079	서울 중랑구 중화동 50-3	SKT1	[지하] 1/3층	중화역 통신실
01231322236 (699)	엔티모아	38.208	127.217	강원 철원군 동송읍 이평리 681-22	SKT1	[지상] 9/10층	
01231306809 (701)	엔티모아	35.182	127.613	전남 구례군 간전면 운천리 산84-1	SKT1	[지상] 1/1층	특이사항 없음
01231322464 (703)	엔티모아	37.765	128.876	강원 강릉시 교동 1877-7	SKT1	[지상] 3/7층	냉방기 4호기 옆 벽면 시설
01231322477 (704)	엔티모아	37.21	127.891	강원 원주시 귀래면 운계리 171-3	SKT1	[지상] 1/1층	원주운계2
01231322893 (706)	우리넷	37.527	127.04	서울 강남구 압구정동 495	SKT1	[지하] 2/3층	압구정로데오역 이동통신실
01231322465 (707)	엔티모아	38.078	128.624	강원 양양군 양양읍 구교리 208	SKT2	[지상] 2/2층	RT02-01 정류기 뒷편 벽면 설치
01231322604 (709)	엔티모아	37.512	128.213	강원 횡성군 둔내면 둔방내리 108-9	SKT1	[지상] 3/3층	횡성자포기지국 / 출입 후 왼쪽 벽면
01227587871 (710)	우리넷	34.677	126.919	전남 장흥군 장흥읍 향양리 812-1	SKT2	[지상] 1/1층	출입문우측책상옆1M
01231300269 (712)	우리넷	36.809	127.788	충북 괴산군 괴산읍 서부리 320-6	SKT2	[지상] 1/1층	하론 H01-01 좌측 벽
01231322517 (713)	엔티모아	38.078	128.624	강원 양양군 양양읍 구교리 208	SKT2	[지상] 1/2층	1층 좌측 벽면 설치
01231307890 (714)	엔티모아	35.099	129.027	부산 중구 부평동1가 36-12	SKT1	[지상] 4/6층	출입문 통과 오른쪽 벽면
01231300024 (715)	우리넷	35.317	126.983	전남 담양군 담양읍 중앙로50	SKT1	[지상] 2/5층	
01231308115 (717)	엔티모아	35.721	126.743	전북 부안군 부안읍 봉덕리 145-2	SKT2	[지상] 1/2층	1층 분전반 옆
01231316244 (718)	엔티모아	37.462	126.641	인천 미추홀구 숭의동 343-9	SKT2	[지상] 10/10층	벽부콘센트
01231308171 (719)	엔티모아	35.721	126.743	전북 부안군 부안읍 봉덕리 145-2	SKT2	[지상] 2/2층	2층 분전반 옆
01231316299 (720)	우리넷	37.382	126.656	인천 연수구 송도동 7-51	SKT1	[지하] 4/4층	테크노파크 통신실내 좌측벽 하단
01231322456 (721)	엔티모아	37.278	127.909	강원 원주시 흥업면 매지리 1935-1	SKT1	[지하] 1/3층	원주흥업기지국 하론앞설치
01231308202 (722)	엔티모아	35.099	129.03	부산 중구 창선동1가 30-2	SKT1	[지상] 6/6층	출입문 오른쪽편 콘센트
01231322447 (723)	엔티모아	37.325	127.94	강원 원주시 명륜동 846-2	SKT1	[지하] 1/7층	출입구부근(원주명륜동기지국)
01231322373 (724)	엔티모아	37.714	128.827	강원 강릉시 성산면 구산리 302-4	SKT1	[지하] 1/3층	정류기 우측 벽에 시설
01231300103 (725)	우리넷	36.808	127.079	충남 아산시 탕정면 호산리 210-33	SKT2	[지상] 3/3층	장비실 정면 안쪽 벽면
01231300332 (726)	우리넷	37.568	126.979	서울 중구 무교동 11	SKT1	[지상] 13/16층	축전지 설치 벽면
01231322225 (727)	엔티모아	37.183	128.467	강원 영월군 영월읍 영흥리 947-8	SKT1	[지상] 5/8층	5층 기지국 내 환풍기 밑 콘센트
01231321964 (729)	엔티모아	38.509	128.42	강원 고성군 현내면 마차진리 239	SKT1	[지상] 10/10층	접지단자반 하단 시설
01231322609 (730)	엔티모아	37.445	129.168	강원 삼척시 남양동 14-3번지	SKT1	[지상] 2/4층	
01231321587 (731)	엔티모아	37.49	126.729	인천 부평구 부평동 161-3	SKT2	[지상] 7/7층	PM07-03 우측 외벽
01227588029 (732)	우리넷	37.571	127.083	서울 광진구 중곡동 555-1	SKT1	[지상] 3/5층	하론 우측
01231322369 (733)	엔티모아	37.669	128.597	강원 평창군 대관령면 유천리863	SKT1	[지상] 1/1층	
01231321696 (734)	엔티모아	37.504	126.73	인천 부평구 부평동 10-966	SKT1	[지상] 1/4층	출입문 좌측 외벽
01231321771 (735)	엔티모아	37.485	127.012	서울 서초구 서초동 1589-5	SKT1	[지상] 13/15층	기지국 출입문 들어가서 좌측 분전반 옆
01231321775 (736)	엔티모아	37.504	126.73	인천 부평구 부평동 10-966	SKT1	[지상] 4/4층	출입문 좌측외벽
01231321596 (737)	엔티모아	37.504	126.73	인천 부평구 부평동 10-966	SKT1	[지상] 3/4층	출입문 좌측외벽
01231321473 (738)	엔티모아	37.504	126.73	인천 부평구 부평동 10-966	SKT2	[지상] 2/4층	출입문 좌측외벽
01227587953 (739)	우리넷	35.172	126.861	광주 북구 동림동 900-30	SKT1	[지상] 3/5층	
01227587690 (740)	우리넷	37.72	127.185	경기 남양주시 진접읍 장현로 126	SKT1	[지상] 4/5층	냉방기옆 건물벽 콘센트
01231300204 (741)	우리넷	36.877	127.149	충남 천안시 서북구 직산읍 삼은리 76-534	SKT2	[지상] 2/2층	장비실 정면 안쪽 벽면
01231307540 (742)	엔티모아	35.222	129.153	부산 해운대구 반송동 248-9	SKT1	[지상] 4/10층	출입구 정면 벽면 콘센트
01231322537 (743)	엔티모아	37.637	128.558	강원 평창군 진부면 하진부리 206-64	SKT1	[지상] 3/7층	
01227587378 (744)	우리넷	33.227	126.26	제주특별자치도 서귀포시 대정읍 상모리 3733	SKT1	[지상] 1/2층	출입문 우측 벽면
01227587916 (746)	우리넷	37.657	127.176	경기 남양주시 진건읍 용정리 722-8	SKT1	[지상] 4/5층	진건 기지국내 기둥 콘센트
01231321637 (747)	엔티모아	37.55	126.834	서울 강서구 내발산동 717-6	SKT1	[지상] 1/3층	RA01-01 뒷편 외벽
01231307538 (748)	엔티모아	34.938	127.875	경남 남해군 설천면 노량리 328-7	SKT1	[지상] 1/1층	없음
01231321784 (749)	엔티모아	37.55	126.834	서울 강서구 내발산동 717-6	SKT2	[지상] 2/3층	PM02-01 우측 외벽
01231321661 (751)	엔티모아	37.55	126.834	서울 강서구 내발산동 717-6	SKT1	[지상] 3/3층	출입문 죄측 외벽
01231307697 (753)	엔티모아	35.1	128.982	부산시 사하구 괴정동 1117-34	SKT1	[지상] 4/5층	출입문 옆 벽면 콘센트
01231300114 (754)	우리넷	36.808	127.079	충남 아산시 탕정면 호산리 210-33	SKT2	[지상] 2/3층	장비실 정면 안쪽 벽면
01231300211 (755)	우리넷	37.292	127.007	경기 수원시 장안구 정자동 81-13	SKT1	[지상] 1/2층	1층 출입문 좌측 하단 0-30M
01231307335 (756)	엔티모아	35.198	129.131	부산 해운대구 반여동 1291-230	SKT1	[지상] 2/5층	출입구 왼쪽 화이트보드 밑
01231321774 (757)	엔티모아	37.479	127.008	서울 서초구 서초동1467-80	SKT1	[지하] 4/13층	출입문 들어가자마자 좌측하단 콘센트
01231322478 (759)	엔티모아	37.274	128.268	강원 영월군 주천면 주천리 1397-3	SKT1	[지상] 1/1층	
01231322492 (760)	엔티모아	37.873	128.26	강원 인제군 상남면 상남리 124-12	SKT2	[지상] 2/2층	2층 출입구에서 좌측 벽면
01231322662 (761)	우리넷	37.387	126.936	경기 안양시 만안구 안양동 200-14	SKT1	[지상] 7/7층	출입문 정면방향 좌측벽면
01231322020 (762)	우리넷	37.387	126.936	경기 안양시 만안구 안양동 200-14	SKT1	[지상] 6/7층	6층 Legacy 좌측벽면
01231322493 (763)	우리넷	37.253	127.02	경기 수원시 권선구 세류동 1100-3	SKT2	[지상] 1/5층	1F 사무실 벽면
01231322675 (764)	우리넷	37.274	127.105	경기 용인시 기흥구 신갈동 38-2	SKT2	[지상] 1/4층	출입문 우측 건물옆면 벽면
01231322652 (765)	우리넷	37.253	127.02	경기 수원시 권선구 세류동 1100-3	SKT2	[지상] 2/5층	
01231322991 (766)	우리넷	37.356	126.947	경기 군포시 당동 747-35	SKT1	[지상] 3/7층	분전반 주변
01231315353 (767)	엔티모아	35.912	127.066	전북 완주군 삼례읍 후정리 490	SKT1	[지상] 5/5층	
01231322482 (769)	엔티모아	38.219	128.369	강원도 인제군 진부령로 50-3	SKT1	[지상] 2/3층	축전지 상단 설치
01231307444 (770)	엔티모아	35.184	129.204	부산 해운대구 송정동 193-10	SKT1	[지상] 3/3층	출입문 왼쪽 전원함 밑
01231315801 (771)	엔티모아	35.936	127.168	전북 완주군 봉동읍 장기리 232-2	SKT1	[지상] 4/5층	
01231300350 (772)	우리넷	37.116	127.615	경기 이천시 장호원읍 장호원리 384	SKT2	[지상] 1/1층	출입문 옆 하단 1M
01231300255 (773)	우리넷	37.64	127.112	경기도 구리시 갈매동 163-60	SKT1	[지상] 1/1층	출입문 우측 하단 벽면 설치
01231308132 (774)	엔티모아	35.435	126.713	전북 고창군 고창읍 월곡리 783	SKT2	[지상] 1/2층	TPM01-02 왼쪽 콘센트
01231308182 (775)	엔티모아	35.167	129.179	부산 해운대구 좌동 1485-4	SKT2	[지상] 4/10층	출입문 왼쪽벽면 하론 1호기 옆 벽면콘센트
01227588020 (778)	우리넷	35.215	127.454	전남 구례군 구례읍 산성리 69	SKT2	[지상] 1/1층	중심국 출입문 좌측
01231321656 (779)	엔티모아	37.466	127.043	서울 서초구 양재동 353-1	SKT1	[지상] 1/3층	출입문 옆
01231300383 (781)	우리넷	36.796	127.619	충북 증평군 도안면 도당리 622-1	SKT1	[지상] 1/1층	실내 콘센트 부착
01231321758 (782)	엔티모아	37.466	127.043	서울 서초구 양재동 353-1	SKT1	[지상] 2/3층	축전지 사이
01231307949 (783)	엔티모아	35.435	126.713	전북 고창군 고창읍 월곡리 783	SKT2	[지상] 2/2층	축천지실 입구 우측 콘센트
01231321666 (784)	엔티모아	37.466	127.043	서울 서초구 양재동 353-1	SKT1	[지상] 3/3층	들어가자마자 오른쪽 축전지 옆
01231321648 (785)	엔티모아	37.466	127.043	서울 서초구 양재동 353-1	SKT1	[지하] 1/3층	들어가자마자 분전반 앞
01231321535 (786)	엔티모아	37.247	128.096	강원 원주시 신림면 성남리 산 7	SKT1	[지상] 1/1층	기지국 출입문 들어와서 왼쪽 꺽어서 코너에 설치
01227588034 (788)	우리넷	34.828	126.693	전남 영암군 덕진면 금강리 254-34	SKT2	[지상] 1/1층	출입문우측1M벽
01231322316 (791)	엔티모아	38.074	128.619	강원 양양군 양양읍 남문리 173-3	SKT1	[지상] 5/5층	양양상평기지국
01231315513 (792)	엔티모아	36.026	127.261	전북 완주군 경천면 경천리 97-15	SKT1	[지상] 1/1층	
01227588084 (793)	우리넷	34.571	126.602	전남 해남군 해남읍 해리 595	SKT1	[지상] 4/4층	출입문 열자마자 정면 우측 벽면
01231300059 (798)	우리넷	37.584	126.909	서울시 은평구 증산동 249번지 태광APT 상가 1층	SKT2	[지상] 1/9층	출입문 맞은편 벽면 하단부 설치
01227587462 (799)	우리넷	36.701	129.129	경북 영양군 일월면 도계리 720-22	SKT2	[지상] 1/1층	
01231321692 (801)	엔티모아	37.494	127.077	서울 강남구 개포동 14-1	SKT1	[지상] 2/5층	입구 왼쪽 기둥
01227587908 (802)	우리넷	34.569	126.598	전남 해남군 해남읍 읍내리 59	SKT1	[지상] 4/4층	냉방기 1호기 정면 좌측 벽면
01231307610 (803)	엔티모아	35.158	129.116	부산 수영구 광안동 138-30	SKT2	[지상] 1/2층	출입문 우측 하론 옆 벽면콘센트
01231322659 (804)	우리넷	37.161	127.033	경기 오산시 가장동 157-3	SKT1	[지상] 2/4층	사무실 벽면
01227587980 (805)	우리넷	34.484	126.264	전남 진도군 진도읍 성내리 43-61	SKT1	[지상] 3/4층	LTE 중형정류기 뒷편
01231300254 (806)	우리넷	36.726	127.535	충북 청주시 청원구 내수읍 내수리 36-17	SKT1	[지상] 4/5층	축전지 뒤
01231300355 (807)	우리넷	37.279	127.45	경기 이천시 창전동 466-5	SKT2	[지상] 3/6층	3층 하론 H03-03 오른쪽 벽면 하단부 1M 설치
01227587759 (808)	우리넷	36.567	128.178	경북 상주시 함창읍 구향리 125-1	SKT1	[지상] 1/2층	출잎문 정면
01227587944 (810)	우리넷	34.644	126.787	전남 강진군 군동면 호계리 812-3	SKT1	[지상] 1/2층	출입문 옆
01231300050 (811)	우리넷	37.615	126.834	경기 고양시 덕양구 행신동 761 대명플라자	SKT1	[지상] 3/8층	출입문 좌측 벽면 AC분전반(PM03-01) 하단부
01231308189 (812)	엔티모아	35.224	129.091	부산 금정구 부곡동 325-36	SKT1	[지상] 4/5층	출입문 정면 벽면
01231307529 (813)	엔티모아	35.161	129.183	부산 해운대구 중동 1483-3	SKT1	[지상] 6/8층	출입구 정면 화이트보드 옆
01231308156 (814)	엔티모아	35.648	126.941	전북 정읍시 태인면 태창리 145	SKT2	[지상] 1/1층	1-A9 뒤 콘센트
01231308125 (815)	엔티모아	35.158	129.116	부산 수영구 광안동 138-30	SKT2	[지상] 2/2층	2층 냉방기분전반 밑 벽면콘센트
01231300544 (816)	우리넷	36.712	127.529	충북 청주시 청원구 내수읍 은곡리 230-32	SKT1	[지상] 1/1층	출입문 우측벽면 간이전원함내
01231321729 (817)	엔티모아	37.481	126.876	서울 금천구 가산동 493-6	SKT1	[지상] 13/15층	출입구 2시방향 4m 지점 기둥
01231308096 (818)	엔티모아	35.224	129.081	부산 금정구 장전동 598-8	SKT1	[지상] 9/9층	출입문 좌측
01231300315 (819)	우리넷	37.279	127.45	경기 이천시 창전동 466-5	SKT2	[지상] 4/6층	4층 하론 H04-03 오른쪽 벽면 하단부 1M 설치
01227728213 (820)	우리넷	34.637	126.768	전남 강진군 강진읍 평동리 176-8	SKT1	[지상] 4/5층	에어콘 옆
01227587724 (821)	우리넷	34.452	126.619	전남 해남군 현산면 황산리 1-1	SKT1	[지상] 2/2층	하론 소화기 좌측 벽면
01231307741 (822)	엔티모아	35.415	129.172	경남 양산시 삼호동 576-3	SKT2	[지상] 7/7층	출입문 좌측벽면 10M
01231321705 (823)	엔티모아	37.474	126.89	서울 금천구 가산동 237-1	SKT1	[지상] 6/8층	출입구 우측 하단
01231300207 (824)	우리넷	37.279	127.45	경기 이천시 창전동 466-5	SKT2	[지상] 5/6층	5층 하론 H05-03 오른쪽 벽면 하단부 1M 설치
01227588035 (825)	우리넷	34.44	126.359	전남 진도군 고군면 금계리 131-61	SKT1	[지상] 3/2층	"용호리마을회관, 기지국 입구"
01231300054 (826)	우리넷	35.281	127.287	전남 곡성군 곡성읍 교촌리 34-2	SKT2	[지상] 2/2층	2층 출입문 우측 콘센트
01227587590 (827)	우리넷	36.521	129.038	경북 청송군 진보면 진안리 644-18	SKT2	[지상] 2/2층	우측 접지단자대 좌측 하부
01231321877 (828)	엔티모아	37.466	126.898	서울 금천구 독산동1031	SKT1	[지상] 9/9층	벽면
01231307433 (829)	엔티모아	35.25	129.056	부산 금정구 금성동 552-1	SKT1	[지상] 1/2층	출입문 우측 하론소화기 옆
01231300466 (830)	우리넷	36.675	127.472	충북 청주시 청원구 사천동 120-12	SKT1	[지상] 1/1층	
01227728263 (831)	우리넷	34.679	126.908	전남 장흥군 장흥읍 건산리 478-23	SKT1	[지상] 2/6층	횐풍기 옆
01231322695 (832)	엔티모아	37.238	129.045	강원 삼척시 도계읍 도계리 358	SKT1	[지상] 3/5층	
01231300047 (833)	우리넷	34.987	126.471	전남 무안군 무안읍 교촌리 1045-13	SKT2	[지상] 2/2층	출입문우측책상옆1 M벽
01231322488 (834)	엔티모아	38.213	128.59	강원 속초시 영랑동 231-2	SKT1	[지상] 20/20층	출입문 우측 시설
01231321698 (835)	엔티모아	37.503	127.066	서울 강남구 대치동1008-1	SKT1	[지하] 1/9층	출입문틀어가서 좌측 분전반 옆 콘센트
01231322698 (836)	우리넷	37.199	127.095	경기 화성시 오산동 967-2701	SKT1	[지하] 5/1층	우측벽면
01231322457 (837)	우리넷	37.131	126.922	경기 화성시 향남읍 행정리 487-3	SKT1	[지상] 7/7층	실내 벽면
01231307162 (838)	엔티모아	35.136	129.066	부산 남구 문현동 815	SKT1	[지상] 16/20층	출입문 정면 벽면 콘센트
01231300280 (839)	우리넷	37.293	127.419	경기 이천시 사음동 170-2	SKT2	[지상] 1/2층	축전지실 입구 하단 외벽 1M
01231316260 (840)	우리넷	37.481	126.803	경기 부천시 괴안동 5-3	SKT2	[지상] 2/4층	출입문 우측 책상옆 벽면중앙 하단부 설치
01227587933 (842)	우리넷	37.293	127.419	경기 이천시 사음동 170-2	SKT1	[지상] 2/2층	냉방기 A02-01 좌측 하단 1M 설치
01231321747 (843)	엔티모아	37.482	126.928	서울 관악구 신림동 1638-32	SKT1	[지상] 9/13층	출입구 좌측 창가쪽
01231316136 (846)	우리넷	37.481	126.803	경기도 부천시 소사구 괴안동 5-3	SKT2	[지상] 4/4층	출입문 우측 창문쪽 벽면중앙 하단부 설치
01231322473 (847)	우리넷	37.13	126.909	경기 화성시 향남읍 평리 76-41	SKT1	[지상] 1/4층	출입문 완쪽 벽면
01231321654 (848)	엔티모아	37.481	126.803	경기 부천시 괴안동 5-3	SKT2	[지상] 3/4층	출입문~우측통신PIT사이 벽면 하단부(40cm)설치
01231322536 (849)	우리넷	37.274	127.105	경기 용인시 기흥구 신갈동 38-2	SKT2	[지상] 2/4층	출입문 안쪽 우측 건물정면 벽면
01231300015 (850)	우리넷	35.317	127.459	전남 구례군 산동면 관산리 715-2	SKT1	[지상] 1/3층	지리산온천기지국 DU랙 뒷 벽면
01231322476 (851)	우리넷	37.274	127.105	경기 용인시 기흥구 신갈동 38-2	SKT2	[지상] 3/4층	출입문 안 우측 건물 정문벽면
01231308303 (852)	엔티모아	35.81	126.887	전북 김제시 요촌동 349-69	SKT2	[지상] 1/2층	H01-01 좌측 콘센트
01231300384 (853)	우리넷	37.38	127.115	경기 성남시 분당구 수내동 9-1	SKT2	[지상] 2/16층	H01상면 좌측 기둥 하단부
01231321905 (854)	엔티모아	37.477	126.933	서울 관악구 신림동 409-102	SKT1	[지상] 4/12층	하론쪽 설치
01231322525 (855)	우리넷	37.274	127.105	경기 용인시 기흥구 신갈동 38-2	SKT2	[지상] 4/4층	출입문 안 우측 건물정면 벽면
01231321135 (858)	엔티모아	37.483	127.06	서울 강남구 개포동 168-5	SKT1	[지상] 3/7층	출입문 들어가서 정면 벽면 콘센트
01231308213 (859)	엔티모아	35.81	126.887	전북 김제시 요촌동 349-69	SKT2	[지상] 2/2층	전원분전반 후면 콘센트
01231300213 (860)	우리넷	37.068	127.872	충북 충주시 중앙탑면 장천리 605	SKT1	[지상] 1/1층	AC분전반 우측 콘센트
01231321567 (863)	엔티모아	37.621	126.711	경기 김포시 사우동 1375	SKT1	[지상] 2/2층	A02-03 우측 외벽
01231320944 (864)	엔티모아	37.621	126.711	경기 김포시 사우동 1375	SKT1	[지상] 1/2층	1F 기지국 우측 내부 벽면
01231321602 (865)	엔티모아	37.477	126.885	서울 금천구 가산동 60-24	SKT2	[지상] 7/15층	장비실 출입문 우측 소화설비 옆
01231321727 (866)	엔티모아	37.437	126.845	경기도 광명시 노온사동 572-47	SKT1	[지상] 1/2층	출입구 정면 벽
01231307548 (867)	엔티모아	35.187	129.121	부산 해운대구 재송동 1071-17	SKT1	[지상] 2/5층	출입문 왼쪽 안전수칙 밑
01231307328 (868)	엔티모아	35.611	129.149	울산 울주군 두동면 천전리 1157-2	SKT1	[지상] 1/1층	기지국 안 지진센서 콘센트
01231307161 (869)	엔티모아	35.641	129.159	울산 울주군 두서면 서하리 265-3	SKT1	[지상] 1/1층	기지국 내 안쪽벽면 콘센트
01231307228 (870)	엔티모아	35.192	129.13	부산 해운대구 재송동 1152-9	SKT1	[지상] 4/5층	출입구 정면 테이블 옆
01227587506 (871)	우리넷	35.833	128.509	대구 달서구 월암동 1076	SKT1	[지상] 3/4층	
01231307571 (872)	엔티모아	35.707	129.188	울산 울주군 두서면 활천리 474	SKT1	[지상] 1/1층	기지국사내 안쪽 벽면 콘센트
01227587618 (873)	우리넷	35.84	128.545	대구 달서구 본리동 154-4	SKT2	[지상] 4/5층	축전지실 내
01227587318 (874)	우리넷	35.842	128.5	대구 달서구 갈산동 263-1	SKT1	[지상] 4/5층	
01227587967 (875)	우리넷	35.871	128.496	대구 달성군 다사읍 서재리 126-1	SKT1	[지상] 1/3층	냉방기 옆 콘센트
01227587985 (876)	우리넷	35.84	128.545	대구 달서구 본리동 154-4	SKT1	[지상] 5/5층	냉방기3호기 우측 1M
01227500429 (878)	우리넷	35.862	128.459	대구 달성군 다사읍 매곡리 699-4	SKT1	[지상] 5/3층	기지국 벽면 설치
01231307163 (882)	엔티모아	35.562	129.187	울산 울주군 언양읍 반천리 34-1	SKT1	[지상] 3/4층	AC분전반 옆 콘센트
01227587214 (883)	우리넷	35.827	128.454	경북 고령군 다산면 평리리 138	SKT1	[지상] 1/2층	냉방기
01227587912 (885)	우리넷	35.779	128.431	대구 달성군 옥포읍 강림리 565-6	SKT1	[지상] 4/4층	냉방기 벽면
01231307384 (886)	엔티모아	35.466	129.218	울산 울주군 웅촌면 초천리 152-5	SKT1	[지상] 1/1층	기지국사내 벽면 콘센트
01231307581 (887)	엔티모아	35.614	129.067	울산 울주군 상북면 궁근정리 542	SKT1	[지상] 1/1층	기지국사내 벽면 콘센트
01227587665 (888)	우리넷	35.73	128.451	대구 달성군 논공읍 북리 1-1	SKT1	[지상] 3/3층	냉방기 1호 기 좌측
01231322558 (889)	우리넷	37.253	127.02	경기 수원시 권선구 세류동 1100-3	SKT2	[지상] 4/5층	왼쪽 벽면 중간
01231322166 (890)	우리넷	37.253	127.02	경기 수원시 권선구 세류동 1100-3	SKT2	[지상] 3/5층	입구 왼쪽 벽면
01227716555 (895)	우리넷	37.379	126.975	경기 의왕시 내손동 739-3	SKT1	[지상] 3/15층	출입구 옆 벽면
01231322941 (896)	우리넷	37.349	126.972	경기 의왕시 고천동 290-2	SKT1	[지상] 11/11층	축전지 옆 벽면
01231322972 (897)	우리넷	37.327	126.959	경기 의왕시 삼동 362	SKT2	[지상] 2/3층	냉방기2-3호기 옆
01227509548 (898)	우리넷	37.327	126.959	경기 의왕시 삼동 362	SKT1	[지상] 3/3층	출입문 옆
01231315983 (899)	엔티모아	37.36	127.315	경기 광주시 초월읍 산이리 9-6	SKT1	[지상] 1/3층	1층 축전지(BA01-4조) 좌측 하단 외벽 1.0M
01231300374 (900)	우리넷	37.208	126.812	경기도 화성시 남양읍 남양리 566	SKT1	[지상] 1/2층	
01231322704 (901)	엔티모아	37.887	127.749	강원 춘천시 후평동 301-1	SKT1	[지상] 5/6층	출입문 맞은편 벽 미사용 환풍기 뒷쪽 콘센트
01231316326 (903)	엔티모아	37.36	127.315	경기 광주시 초월읍 산이리 9-6	SKT2	[지상] 2/3층	2층 하론(H02-2) 우측 하단 0.20M
01231300413 (904)	우리넷	37.554	127.154	서울 강동구 명일동 46-6	SKT1	[지하] 1/2층	
01231300318 (905)	우리넷	37.516	127.02	서울 강남구 논현동 279	SKT1	[지하] 2/2층	압구정향 승강장 1-2 (5678)
01231322169 (906)	엔티모아	35.887	128.611	대구 북구 대현동 25	SKT1	[지상] 1/5층	(경북대)성능시험
01231322140 (907)	엔티모아	35.887	128.611	대구 북구 대현동 25	SKT1	[지상] 1/5층	(경북대)성능시험
01231322244 (908)	엔티모아	35.887	128.611	대구 북구 대현동 25	SKT1	[지상] 1/5층	(경북대)성능시험
01231322154 (909)	엔티모아	35.887	128.611	대구 북구 대현동 25	SKT1	[지상] 1/5층	(경북대)성능시험
01231322229 (910)	엔티모아	35.887	128.611	대구 북구 대현동 25	SKT1	[지상] 1/5층	(경북대)성능시험
01231322048 (911)	엔티모아	35.887	128.611	대구 북구 대현동 25	해양경찰청	[지상] 1/5층	(경북대)성능시험
01231307028 (912)	엔티모아	35.208	129.037	부산 북구 만덕동 848-1	우정사업본부	[지하] 1/5층	출입구 우측 벽면
01231322112 (913)	엔티모아	35.887	128.611	대구 북구 대현동 25	SKT1	[지상] 1/5층	(경북대)성능시험
01231321998 (915)	엔티모아	35.887	128.611	대구 북구 대현동 25	SKT1	[지상] 1/5층	(경북대)성능시험
01231322201 (916)	엔티모아	35.887	128.611	대구 북구 대현동 25	SKT1	[지상] 1/5층	(경북대)성능시험
01231322047 (917)	엔티모아	35.887	128.611	대구 북구 대현동 25	SKT1	[지상] 1/5층	(경북대)성능시험
01231322157 (918)	엔티모아	37.885	127.747	강원 춘천시 후평동 720-9	SKT2	[지상] 2/2층	춘천후평 집중국 출입문 통과 후 맨끝 5G DU랙 뒤 하단 콘센트
01231322252 (919)	엔티모아	35.887	128.611	대구 북구 대현동 25	SKT1	[지상] 1/5층	(경북대)성능시험
01231321749 (920)	엔티모아	35.887	128.611	대구 북구 대현동 25	SKT1	[지상] 1/5층	(경북대)성능시험
01231322159 (921)	엔티모아	35.887	128.611	대현동 25	SKT1	[지상] 1/5층	(경북대)성능시험
01231322052 (922)	엔티모아	35.887	128.611	대구 북구 대현동 25	SKT1	[지상] 1/5층	(경북대)성능시험
01231321851 (923)	엔티모아	35.887	128.611	대구 북구 대현동 25	SKT1	[지상] 1/5층	(경북대)성능시험
01231321925 (924)	엔티모아	35.887	128.611	대구 북구 대현동 25	SKT1	[지상] 1/5층	(경북대)성능시험
01231322109 (925)	엔티모아	35.887	128.611	대구 북구 대현동 25	SKT1	[지상] 1/5층	(경북대)성능시험
01231300352 (927)	우리넷	37.208	126.812	경기 화성시 남양읍 남양리 566	SKT1	[지상] 2/2층	
01231316249 (928)	엔티모아	37.225	127.311	경기 용인시 처인구 양지면 평창리 325-5	SKT1	[지상] 3/3층	3층 하론(H03-01) 우측 하단 0.01M
01231322197 (929)	엔티모아	35.887	128.611	대구 북구 대현동 25	SKT1	[지상] 1/5층	(경북대)성능시험
01231322259 (930)	엔티모아	35.887	128.611	대구 북구 대현동 25	SKT1	[지상] 1/5층	(경북대)성능시험
01231322059 (931)	엔티모아	35.887	128.611	대구 북구 대현동 25	SKT1	[지상] 1/5층	(경북대)성능시험
01231322214 (932)	엔티모아	35.887	128.611	대구 북구 대현동 25	SKT1	[지상] 1/5층	(경북대)성능시험
01231321970 (933)	엔티모아	35.887	128.611	대구 북구 대현동 25	SKT2	[지상] 1/5층	(경북대)성능시험
01231322134 (934)	엔티모아	35.887	128.611	대구 북구 대현동 25	SKT1	[지상] 1/5층	(경북대)성능시험
01231322249 (935)	엔티모아	35.887	128.611	대구 북구 대현동 25	SKT1	[지상] 1/5층	(경북대)성능시험
01231321560 (936)	엔티모아	35.887	128.611	대구 북구 대현동 25	SKT1	[지상] 1/5층	(경북대)성능시험
01231322311 (937)	엔티모아	37.344	127.928	강원 원주시 단계동 875	SKT1	[지상] 2/5층	2층 단계5G국사내 PM02-03 통신 좌측벽
01227587960 (938)	우리넷	34.811	126.396	전남 목포시 용해동 965-15	SKT1	[지상] 4/4층	
01231307543 (939)	엔티모아	35.194	128.988	부산 사상구 모라동 276-4	SKT1	[지상] 3/4층	출입구 오른쪽 화이트보드 밑
01231300165 (940)	우리넷	36.611	127.326	충북 청주시 흥덕구 오송읍 오송리 138-10	SKT1	[지상] 1/1층	출입문 우측 벽
01231322664 (941)	엔티모아	37.873	127.752	강원 춘천시 후평동 25	SKT1	[지상] 4/7층	춘천후평 기지국 출입문 통과 후 정면 하단 콘센트
01231300209 (942)	우리넷	36.985	128.369	충북 단양군 단양읍 별곡리 588	SKT1	[지상] 5/5층	AC분전반 옆
01231307718 (943)	엔티모아	35.335	129.038	경남 양산시 남부동 473-5	SKT1	[지상] 5/7층	
01227587862 (944)	우리넷	34.802	126.405	전남 목포시 용해동 137-63	SKT2	[지상] 1/1층	용해3기지국
01231322467 (945)	엔티모아	37.606	128.433	강원 평창군 용평면 용전리 188-22	SKT1	[지상] 2/2층	
01231307229 (947)	엔티모아	35.185	128.991	부산 사상구 모라동 1362	SKT1	[지상] 3/6층	출입구 오른쪽 안전수칙 아래
01231321391 (948)	엔티모아	37.606	128.433	강원 평창군 용평면 용전리 188-22	SKT1	[지상] 1/2층	
01231300296 (949)	우리넷	37.547	126.931	서울 마포구 창전동 243-3	SKT1	[지하] 2/3층	출입문앞
01231307069 (950)	엔티모아	35.358	129.04	경남 양산시 북정동 899-2	SKT1	[지상] 3/4층	
01231323046 (951)	우리넷	37.128	127.012	경기 평택시 서탄면 내천리 105-2	SKT2	[지상] 1/3층	출입문 좌측 벽면
01231307404 (952)	엔티모아	35.377	129.047	경남 양산시 상북면 소토리 482-16	SKT1	[지상] 2/3층	
01227729172 (953)	우리넷	34.485	126.279	전남 진도군 진도읍 동외리 304	SKT1	[지상] 2/2층	출입문우측책상옆1 M
01231322569 (954)	엔티모아	37.448	128.668	강원 정선군 북평면 북평리 251-3	SKT1	[지하] 1/3층	냉방기2호기 맞은편렉 인근 콘센트
01227729186 (956)	우리넷	37.544	126.951	서울 마포구 공덕동 237-9	SKT1	[지하] 2/3층	통신실안
01231300235 (957)	우리넷	37.561	127.065	서울 동대문구 장안동 464-1	SKT1	[지상] 7/8층	
01231300406 (959)	우리넷	37.161	126.908	경기 화성시 팔탄면 구장리 833	SKT1	[지상] 1/2층	
01231300267 (960)	우리넷	37.569	127.069	서울 동대문구 장안동 373-6	SKT1	[지상] 7/10층	706호 벽면
01227587028 (963)	우리넷	34.801	126.428	전남 목포시 상동 1012-4	SKT1	[지상] 4/6층	출입문 오른쪽 상단 벽면
01231300290 (964)	우리넷	37.536	127.083	서울 광진구 자양동 219-2	SKT1	[지상] 5/9층	E3 뒤 콘센트
01231316265 (965)	엔티모아	37.629	127.025	서울 강북구 미아동 194	SKT1	[지상] 3/6층	"R31축전지 A,B조 앞쪽벽 구석"
01231307747 (966)	엔티모아	35.211	129.017	부산 북구 덕천동 424-1	SKT1	[지상] 1/3층	
01227728394 (967)	우리넷	37.579	127.074	서울 동대문구 장안동 315-1	SKT1	[지상] 3/7층	오른쪽 벽면부 위치
01231323057 (968)	우리넷	37.085	127.447	경기도 안성시 일죽면 월정리712-4	SKT1	[지상] 1/1층	
01231307389 (970)	엔티모아	35.315	129.004	경남 양산시 물금읍 가촌리 1280-4	SKT1	[지상] 3/4층	
01231307885 (971)	엔티모아	35.249	129.013	부산 북구 금곡동 1331-1	SKT1	[지상] 8/8층	출입구 반대편 벽면
01231308121 (972)	엔티모아	35.208	129.01	부산 북구 덕천동 452-1	SKT1	[지상] 2/3층	화론2회기옆
01231307663 (974)	엔티모아	35.372	128.9	경남 양산시 원동면 용당리 429-2	SKT1	[지상] 1/1층	
01231307411 (975)	엔티모아	35.344	129.035	경남 양산시 북부동 491-8	SKT1	[지상] 7/8층	
01231321597 (978)	엔티모아	37.518	127.038	서울 강남구 논현동 110-6	SKT1	[지상] 1/3층	PM01-02 밑
01231322404 (979)	우리넷	36.99	127.26	경기 안성시 계동 101-11	SKT1	[지상] 1/1층	실내 우측 벽면 자연공조기 하단
01231315797 (980)	엔티모아	37.421	126.65	인천 연수구 옥련동 519-5	SKT2	[지상] 1/8층	양산대학
01231307531 (982)	엔티모아	35.263	129.015	부산 북구 금곡동 641-5	SKT2	[지상] 5/6층	출입문 우측
01231322526 (983)	우리넷	37.543	127.324	경기 양평군 양서면 용담리 532-10	SKT2	[지상] 3/5층	3층기지국벽면
01231307900 (984)	엔티모아	35.929	126.956	전북 익산시 동산동 1096-1	SKT1	[지상] 1/1층	1-E6 우측 1M.콘센트
01231307724 (985)	엔티모아	35.343	129.067	경남 양산시 명곡동 922-2	SKT1	[지상] 4/4층	양산대학
01231307683 (986)	엔티모아	37.425	126.669	인천 연수구 청학동 556-6	SKT1	[지상] 5/5층	창가밑 콘센트
01231321881 (987)	엔티모아	37.518	127.038	서울 강남구 논현동 110-6	SKT1	[지하] 1/3층	안쪽 냉방분전반 하단
01231316280 (989)	엔티모아	37.292	127.007	경기도 수원시 장안구 정자동 81-13	SKT1	[지상] 2/2층	2층 분전반(PS02-01) 좌측 하단 0.40M
01231321838 (990)	엔티모아	37.518	127.038	서울 강남구 논현동 110-6	SKT1	[지상] 2/3층	출입구 우측 하단 콘센트
01231321420 (992)	엔티모아	37.518	127.038	서울 강남구 논현동 110-6	SKT2	[지상] 3/3층	출입구 우측 하단 콘센트
01231307711 (993)	엔티모아	35.373	129.15	경남 양산시 덕계동 743-8	SKT1	[지상] 5/5층	
01231308173 (994)	엔티모아	35.241	129.014	부산 북구 화명동 190-2	SKT1	[지상] 3/6층	AC분전반 옆
01231321825 (995)	우리넷	37.548	127.706	경기 양평군 청운면 가현리 614-4	SKT1	[지상] 2/3층	AC분전반옆 콘센트
01231322580 (996)	엔티모아	37.367	128.395	강원 평창군 평창읍 하리 148-13	SKT1	[지상] 4/5층	
01231307742 (997)	엔티모아	35.428	129.148	경남 양산시 주남동 산 150	SKT1	[지상] 1/4층	
01231300044 (998)	우리넷	37.572	127.056	서울 동대문구 답십리동 246-23	SKT1	[지상] 3/5층	벽면 콘센트무/AC분전반옆
01231322274 (999)	엔티모아	37.488	127.982	강원 횡성군 횡성읍 읍하리 574-6	SKT1	[지상] 1/2층	1층 5G국사내 PM01-01 통신 분전반 좌측벽
01231300016 (1000)	우리넷	36.961	126.855	경기 평택시 포승읍 만호리 313-7	SKT1	[지상] 3/5층	기지국 가벽 뒤 콘크리트 벽
01231322481 (1001)	우리넷	37.026	126.794	경기 화성시 우정읍 이화리 1104-7	SKT1	[지상] 2/4층	축전지실
01231321409 (1002)	엔티모아	37.418	126.678	인천 연수구 연수동 568-12	SKT1	[지상] 6/7층	
01231307826 (1003)	엔티모아	35.21	129.01	부산 북구 덕천동 417-5	SKT1	[지하] 1/7층	냉방기 뒤
01231307721 (1004)	엔티모아	35.443	129.059	경남 양산시 하북면 삼감리 산 101	SKT1	[지상] 1/1층	
01231316297 (1005)	엔티모아	37.451	126.719	인천 남동구 구월동 1272-5	SKT1	[지상] 1/4층	EPS-2 바로 옆
01231316229 (1007)	엔티모아	37.451	126.719	인천 남동구 구월동 1272-5	SKT1	[지상] 2/4층	출입문 안 좌측
01231322962 (1008)	우리넷	37.125	127.442	경기 안성시 일죽면 고은리 282	SKT1	[지상] 1/1층	출입문 왼쪽 벽면
01231307633 (1009)	엔티모아	35.57	129.238	울산 울주군 범서읍 구영리 838-4	SKT1	[지상] 5/6층	출입문 좌측 벽면 3M
01231307933 (1010)	엔티모아	35.262	128.629	경남 창원시 의창구 소답동 156-9	SKT2	[지상] 3/4층	
01231322549 (1011)	엔티모아	37.86	127.719	강원 춘천시 온의동 542-1	SKT1	[지상] 1/3층	춘천퇴계4 기지국 출입문 통과 후 우측 하단 콘센트
01231316292 (1012)	엔티모아	37.307	127	경기도 수원시 장안구 파장동 627-7	SKT1	[지상] 4/7층	4층 축전지(BA04-01 1조 전면 외벽 2.8M
01231322531 (1014)	엔티모아	37.86	127.719	강원 춘천시 온의동 542-1	SKT2	[지상] 1/3층	춘천퇴계 집중국 1층 왼쪽 5G DU 출입문 통과 후 죄측 뒤편 하단 콘센트
01231300312 (1015)	우리넷	37.194	127.059	경기도 오산시 외삼미동 201-2	SKT1	[지상] 2/4층	
01231321740 (1016)	엔티모아	37.484	126.984	서울 서초구 방배동 422-7	SKT1	[지상] 1/4층	메인분전반 옆
01231322954 (1017)	우리넷	37.358	126.932	경기도 군포시 산본동1142-5	SKT1	[지상] 7/13층	외부 창가 옹벽
01231316393 (1018)	엔티모아	37.451	126.719	인천 남동구 구월동 1272-5	SKT1	[지상] 3/4층	출입문 안 좌측
01231307700 (1019)	엔티모아	35.213	129.024	부산 북구 덕천동 394-4	SKT1	[지상] 2/4층	출입구 왼쪽 벽면
01231321860 (1020)	엔티모아	37.484	126.984	서울 서초구 방배동 422-7	SKT1	[지상] 2/4층	RT02-01 옆
01231316351 (1021)	엔티모아	37.451	126.719	인천 남동구 구월동 1272-5	SKT1	[지상] 4/4층	출입문 안 좌측
01227587855 (1023)	우리넷	34.979	126.454	전남 무안군 무안읍 교촌리 산 60-13	SKT1	[지상] 1/1층	
01231321878 (1024)	엔티모아	37.484	126.984	서울 서초구 방배동 422-7	SKT1	[지상] 3/4층	가장 오른쪽 안쪽
01231316394 (1025)	우리넷	37.583	126.891	서울 은평구 수색동 379-1	SKT1	[지상] 6/7층	상암동1x
01231321805 (1026)	엔티모아	37.484	126.984	서울 서초구 방배동 422-7	SKT1	[지상] 4/4층	출입문 10M 벽면
01231316209 (1027)	우리넷	37.394	126.923	경기 안양시 만안구 안양동 627-19	SKT1	[지상] 1/2층	출입문우측1m지점
01231320837 (1028)	엔티모아	37.395	126.651	인천 연수구 송도동 3-4	SKT2	[지상] 6/7층	
01231300219 (1029)	우리넷	37.194	127.059	경기 오산시 외삼미동 201-2	SKT2	[지상] 3/4층	
01231322422 (1030)	우리넷	37.414	127.3	경기 광주시 초월읍 지월리 113-1	SKT2	[지상] 1/1층	안쪽 duo-so 밑 벽면 콘센트
01231307998 (1031)	엔티모아	35.205	128.996	부산 북구 구포동 1060-37	SKT2	[지상] 5/5층	출입문 좌측
01231316191 (1032)	우리넷	37.394	126.923	경기 안양시 만안구 안양동 627-19	SKT1	[지상] 2/2층	출입문우측6m지점
01232970089 (1034)	우리넷	37.194	127.059	경기 오산시 외삼미동 201-2	SKT2	[지상] 4/4층	
01231300094 (1036)	우리넷	34.81	126.761	전남 영암군 금정면 연소리 645-1	SKT1	[지상] 1/1층	기지국 내부 안쪽 벽면 콘센트
01231307655 (1038)	엔티모아	35.26	128.632	경남 창원시 의창구 도계동 301-6	SKT2	[지상] 2/3층	
01231300287 (1040)	우리넷	36.989	126.927	경기도 평택시 안중읍 안중리 245-1	SKT2	[지상] 1/2층	출입문 맞은편 자동소화설비(H01-02)옆
01227588079 (1041)	우리넷	36.989	126.927	경기도 평택시 안중읍 안중리 245-1	SKT2	[지상] 2/2층	출입문 우측 8m지점 벽면 하단부(MR-H 리튬축전지 #2-1옆)
01231300313 (1042)	우리넷	37.058	127.058	경기 평택시 서정동 284-14	SKT2	[지상] 1/3층	출입문/좌측 3m지점 벽면 하단부(통신Main 접지반 아래)
01231300392 (1043)	우리넷	37.058	127.058	경기도 평택시 서정동 284-14	SKT1	[지상] 2/3층	출입문/좌측 23m지점 벽면 하단부(자동소화설비 H02-01 옆)
01231300455 (1044)	우리넷	37.058	127.058	경기도 평택시 서정동 284-14	SKT1	[지상] 3/3층	출입문 죄측 23m지점 벽면 하단부(자동소화설비 H03-01 옆)설치
01231321346 (1045)	엔티모아	37.689	126.599	경기 김포시 통진읍 마송리 103-1	SKT1	[지상] 5/5층	
01231300472 (1053)	우리넷	37.161	127.071	경기 오산시 은계동 75-1	SKT2	[지상] 1/2층	출입문 죄측 10m지점 벽면 하단부(축전지 BA01-01 옆)설치
01231300078 (1054)	우리넷	37.161	127.033	경기 오산시 가장동 157-3	SKT1	[지상] 4/5층	
01231300409 (1055)	우리넷	37.161	127.033	경기 오산시 가장동 157-3	SKT1	[지상] 2/5층	냉방기 A03-04 옆 1M
01227587900 (1056)	우리넷	37.161	127.033	경기 오산시 가장동 157-3	SKT1	[지상] 2/5층	냉방기 A02-04 옆 1M
01227723596 (1057)	우리넷	35.036	126.804	전남 나주시 산포면 매성리 122-1	SKT1	[지상] 2/2층	출입문 우측 벽
01227587961 (1058)	우리넷	35.148	126.85	광주 서구 치평동 1255-4	SKT1	[지상] 12/13층	출입문 우측 벽 전화기쪽
01231316464 (1059)	우리넷	37.856	126.784	경기 파주시 문산읍 문산리 10-42	SKT1	[지상] 5/8층	출입문우측BA05-01-02조축전지옆
01231323047 (1060)	우리넷	37.235	126.872	경기 화성시 비봉면 양노리 275-2	SKT2	[지하] 1/3층	입구 오른쪽 콘센트
01227728328 (1061)	우리넷	37.576	126.985	서울 종로구 경운동 95-1	SKT1	[지하] 3/B4층	
01227587290 (1062)	우리넷	35.879	128.545	대구 서구 평리동 595-2	SKT1	[지상] 1/1층	Scan랙 후면
01231316152 (1063)	우리넷	37.82	126.985	경기 양주시 광적면 가납리 692-2	SKT1	[지상] 3/4층	출입문정면18m지점
01231307788 (1064)	엔티모아	35.226	128.677	경남 창원시 성산구 중앙동 69-10	SKT1	[지상] 3/3층	
01231307733 (1065)	엔티모아	35.226	128.677	경남 창원시 성산구 중앙동 69-10	SKT1	[지상] 2/3층	2층전송실
01227588015 (1066)	우리넷	34.812	126.445	전남 목포시 옥암동 1199-1	SKT1	[지상] 2/2층	Ac분전반 우측하단
01231316381 (1067)	엔티모아	37.566	126.985	서울 중구 을지로2가 11	SKT1	[지하] 1/28층	
01231307691 (1068)	엔티모아	35.567	128.165	경남 합천군 합천읍 합천리 387-8	SKT1	[지상] 2/2층	2-C2 정류기 좌 1M
01227587282 (1069)	우리넷	35.931	128.548	대구 북구 태전동 993-6	SKT1	[지상] 2/3층	기존 타이머 제거 후 설치
01231300400 (1070)	우리넷	37.575	126.973	서울 종로구 적선동 80	SKT1	[지하] B1/B3층	통신실 설치
01231321895 (1071)	엔티모아	37.485	126.936	서울 관악구 봉천동 958-19	SKT1	[지하] 1/5층	WDU 안쪽 벽면
01231307417 (1072)	엔티모아	35.594	127.926	경남 거창군 신원면 구사리 산 12-7	SKT2	[지상] 1/1층	출입문 우측 소화기 벽면
01231322391 (1073)	우리넷	36.993	127.086	경기 평택시 평택동 65-23	SKT1	[지상] 5/7층	가벽 뒤 콘크리트 벽
01231300125 (1074)	우리넷	37.535	127.132	서울 강동구 성내동 160-52	SKT1	[지하] 2/3층	
01231300457 (1075)	우리넷	37.557	126.955	서울 마포구 아현동 329-1	SKT2	[지상] 9/9층	출입문 오른쪽끝
01231307398 (1078)	엔티모아	35.277	128.405	경남 함안군 가야읍 말산리 460-20	SKT1	[지상] 3/7층	출입문 옆 벽면
01231322534 (1079)	엔티모아	38.127	128.218	강원 인제군 북면 원통리 1647-9	SKT2	[지상] 2/2층	
01231300229 (1080)	우리넷	37.433	126.997	경기 과천시 별양로 177	SKT2	[지하] 2/2층	정부과천청사 향 3-4 통신실 출입문 바로 옆
01231321887 (1081)	엔티모아	37.512	126.954	서울 동작구 본동 48-12	SKT2	[지상] 4/5층	402호 출입문 좌측 분전반 옆
01227728227 (1082)	우리넷	37.547	126.924	서울 마포구 상수동 157-1	SKT1	[지상] 14/15층	설치 시 특이사항 없음
01231300224 (1083)	우리넷	36.915	127.639	충북 음성군 음성읍 초천리 1186	SKT1	[지상] 2/2층	출입구 우측 벽
01231316480 (1084)	우리넷	37.225	127.311	경기 용인시 처인구 양지면 평창리 325-5	SKT2	[지상] 1/3층	출입문좌측5m지점벽
01227587897 (1085)	우리넷	34.744	126.47	전남 영암군 삼호읍 용앙리 328	SKT1	[지상] 3/4층	
01231323040 (1086)	우리넷	37.219	126.948	경기 화성시 봉담읍 상리 31-3	SKT1	[지상] 7/8층	W기지국 앞 콘센트
01231308145 (1087)	엔티모아	35.171	128.954	부산 강서구 대저2동 2698-1	SKT1	[지상] 2/3층	2층 출입문 우측편 설치
01231300090 (1089)	우리넷	37.588	127.079	서울 중랑구 면목동 179-20	SKT2	[지상] 4/6층	
01231300088 (1090)	우리넷	37.598	127.1	서울 중랑구 망우동 466-3	SKT2	[지상] 7/8층	
01231321664 (1091)	엔티모아	37.502	126.947	서울 동작구 상도1동 747-3	SKT1	[지상] 5/6층	출입문 좌측 벽
01231300091 (1092)	우리넷	37.606	127.094	서울 중랑구 신내동 666	SKT1	[지상] 8/10층	
01231300377 (1093)	우리넷	37.588	127.096	서울 중랑구 면목동 19-72	SKT1	[지상] 3/7층	
01231300429 (1095)	우리넷	37.451	127.001	경기 과천시 과천동 582-2	SKT1	[지하] 2/2층	남태령향 승강장 7-4 통신실 위치 123/4321
01231316430 (1096)	우리넷	37.484	126.971	서울 동작구 사당동 산 25-33 남성_7	SKT2	[지하] 2/3층	청원기계실 통신접지단자반 옆 벽면
01227587422 (1097)	우리넷	36.021	129.352	경북 포항시 북구 죽도동 646-17	SKT1	[지상] 2/4층	입구 좌측 벽면
01231307882 (1098)	엔티모아	35.436	128.587	경남 창녕군 부곡면 거문리 203-10	SKT2	[지하] 2/9층	하론옆벽면
01231307463 (1099)	엔티모아	35.391	128.483	경남 창녕군 남지읍 남지리 294-26	SKT1	[지상] 2/5층	분전반옆벽면
01231322344 (1101)	엔티모아	37.933	128.063	강원 인제군 남면 어론리 695-2	SKT1	[지상] 1/1층	통신접지단자반하단
01231307589 (1102)	엔티모아	35.549	128.624	경남 밀양시 청도면 구기리 104-1	SKT2	[지상] 2/2층	배터리실 좌측벽면
01231307649 (1103)	엔티모아	35.538	128.494	경남 창녕군 창녕읍 술정리 143-4	SKT1	[지상] 5/5층	하론옆
01231308195 (1104)	엔티모아	35.944	126.948	전북 익산시 남중동 488-8	SKT1	[지상] 2/3층	2E-15 우측 1M 콘센트
01231322418 (1105)	우리넷	37.558	126.959	서울 서대문구 북아현동 752-1	SKT1	[지상] 3/5층	아현W
01231322483 (1106)	엔티모아	38.196	128.576	강원 속초시 교동 981-7	SKT1	[지상] 3/3층	3층 출입구에서 좌측 벽
01231316395 (1107)	엔티모아	38.101	127.075	경기 연천군 연천읍 차탄리 51-5	SKT1	[지상] 2/2층	출입문앞
01231307708 (1108)	엔티모아	35.485	128.756	경남 밀양시 삼문동 164-3	SKT1	[지상] 3/3층	출입문옆
01231321932 (1109)	엔티모아	37.476	126.966	서울 관악구 봉천동 1690-154	SKT1	[지상] 5/6층	1x기지국 냉방기 옆 벽면
01231322571 (1110)	엔티모아	37.42	128.042	강원도 원주시 소초면 학곡리 821-2	SKT1	[지상] 1/1층	
01231322479 (1112)	엔티모아	37.77	127.968	강원 홍천군 화촌면 성산리 466-1	SKT1	[지상] 1/1층	성산3 기지국 출입후 좌측 벽면
01231322416 (1113)	엔티모아	37.681	127.877	강원 홍천군 홍천읍 연봉리 476-2	SKT1	[지상] 2/2층	
01231307653 (1114)	엔티모아	35.456	128.85	경남 밀양시 삼랑진읍 우곡리 산 111-5	SKT2	[지상] 1/2층	경찰 무선통신기 뒤벽면
01231316148 (1115)	우리넷	37.492	126.896	서울 영등포구 도림로 137 대림_7	SKT2	[지하] 1/2층	청원기계실 ATS 분전반 하단 벽면 콘센트
01231321821 (1116)	엔티모아	37.514	126.944	서울시 동작구 노량진동 151-11	SKT2	[지상] 8/9층	분전반 옆 전원함
01231322667 (1117)	엔티모아	37.971	128.08	강원 인제군 남면 신남리 413-3	SKT2	[지상] 1/1층	출입문 좌측 외벽
01231316415 (1118)	엔티모아	37.564	127.063	서울 동대문구 장안동 421-1	SKT1	[지상] 5/5층	
01231321538 (1119)	엔티모아	37.741	126.491	인천 강화군 강화읍 남산리 37-3	SKT2	[지하] 1/5층	안쪽 축전지 옆 콘센트
01231315956 (1120)	우리넷	37.492	126.823	서울 구로구 경인로3길 64 온수_7	SKT2	[지하] 1/2층	청원기계실 하론 좌측 하단 벽면 콘션트
01231321812 (1121)	엔티모아	37.475	126.667	인천 미추홀구 도화동 51-5	SKT2	[지상] 2/5층	출입문 정문 첫번째 피트실 옆
01231321711 (1122)	엔티모아	37.475	126.667	인천 미추홀구 도화동 51-5	SKT2	[지상] 4/5층	출입문 정면 첫번째 피트실 우측
01231316300 (1123)	엔티모아	37.908	127.054	경기 동두천시 생연동 611-4	SKT2	[지상] 3/6층	
01231321475 (1124)	엔티모아	37.475	126.667	인천 미추홀구 도화동 51-5	SKT2	[지상] 5/5층	출입문 정면 첫번째피트실 우측
01231307488 (1125)	엔티모아	35.826	127.113	전북 전주시 완산구 서신동 843-4	SKT1	[지상] 1/2층	MRH정류기용 축전지 사이 벽콘설트
01231308036 (1127)	엔티모아	35.826	127.113	전북 전주시 완산구 서신동 843-4	SKT2	[지상] 2/2층	출입문 옆 벽콘설트
01231322905 (1129)	우리넷	37.626	127.032	서울 강북구 번동 148-382	SKT2	[지상] 1/3층	현관 우측장비실/출입문 좌측 5m지점 하단부(0.5m)
01231322791 (1130)	우리넷	37.626	127.032	서울 강북구 번동 148-382	SKT2	[지상] 2/3층	현관 우측장비실/출입문 좌측 5m지점 하단부(0.5m)
01227501238 (1131)	우리넷	37.586	127.037	서울 동대문구 제기동 670-1	SKT2	[지상] 1/4층	출입문 좌측 3m지점 하단부(0.5m) 통신접지단자대 아래
01231322469 (1133)	우리넷	37.586	127.037	서울 동대문구 제기동 670-1	SKT2	[지상] 4/4층	출입문 우측 7m지점 하단부(0.5m) 통신접지 단자대 아래 설치
01231300134 (1134)	우리넷	37.586	127.037	서울 동대문구 제기동 670-1	SKT2	[지상] 3/4층	출입문 좌측 3m지점 하단부(0.5m) 설치
01231323000 (1135)	우리넷	37.586	127.037	서울 동대문구 제기동 670-1	SKT1	[지상] 2/4층	출입문 좌측 5m지점 하단부(0.5m) 설치
01231322996 (1136)	우리넷	37.574	126.997	서울 종로구 인의동 4	SKT2	[지상] 2/7층	출입문 좌측 6m지점 하단부(0.5m) 설치
01231322984 (1137)	우리넷	37.574	126.997	서울 종로구 인의동 4	SKT1	[지상] 3/7층	출입문 좌측 6m지점 하단부(0.5m) 설치
01231300262 (1138)	우리넷	37.574	126.997	서울 종로구 인의동 4	SKT2	[지상] 4/7층	출입문 좌측 6m지점 하단부(0.5m) 설치
01231300310 (1139)	우리넷	37.574	126.997	서울 종로구 인의동 4	SKT2	[지상] 5/7층	출입문 좌측 6m지점 하단부(0.5m) 설치
01231300341 (1140)	우리넷	37.574	126.997	서울 종로구 인의동 4	SKT1	[지상] 6/7층	출입문 좌측 6m지점 하단부(0.5m) 설치
01231322843 (1141)	우리넷	37.574	126.997	서울 종로구 인의동 4	SKT1	[지상] 7/7층	출입문 좌측 6m지점 하단부(0.5m) 설치
01227721278 (1142)	우리넷	37.565	126.929	서울 서대문구 연희동 193-4	SKT1	[지상] 1/5층	출입문 좌측 12m지점 하단부(0.5m) 설치
01227587489 (1143)	우리넷	36.12	128.352	경북 구미시 송정동 443-3	SKT1	[지상] 1/3층	기지국 중앙 기둥
01231322414 (1144)	우리넷	37.565	126.929	서울 서대문구 연희동 193-4	SKT2	[지상] 2/5층	출입문 좌측 12m지점 하단부(0.5m) 설치
01231323004 (1145)	우리넷	37.565	126.929	서울 서대문구 연희동 193-4	SKT2	[지상] 3/5층	출입문 좌측 5m지점 하단부(0.5m) 설치
01231322981 (1146)	우리넷	37.565	126.929	서울 서대문구 연희동 193-4	SKT1	[지상] 4/5층	출입문 좌측 5m지점 하단부(0.5m) 설치
01227587360 (1147)	우리넷	36.12	128.352	경북 구미시 송정동 443-3	SKT2	[지상] 3/3층	출입문 우측
01231322903 (1148)	우리넷	37.588	126.942	서울 서대문구 홍제1동 332-12	SKT2	[지상] 2/4층	출입문 좌측 8m지점 하단부(0.3m) 설치
01231322729 (1149)	우리넷	37.588	126.942	서울 서대문구 홍제1동 332-12	SKT2	[지상] 3/4층	출입문 좌측 8m지점 하단부(0.3m) 설치
01231322861 (1150)	우리넷	37.588	126.942	서울 서대문구 홍제1동 332-12	SKT2	[지상] 4/4층	출입문 좌측 3m지점 하단부(0.3m) 설치
01231300342 (1151)	우리넷	37.58	126.888	서울 마포구 상암동 1601번지	SKT2	[지상] 19/24층	출입문 우측 6m지점 벽면 하단부 0.4m 설치 (AC분기분전함 PS19-01 죄측 하단부 아래)
01231322757 (1152)	우리넷	37.556	127.014	서울 중구 신당동 333-37	SKT2	[지상] 4/4층	출입문 우측 4m지점 하단부(0.3m)설치
01231322944 (1153)	우리넷	37.556	127.014	서울 중구 신당동 333-37	SKT2	[지상] 3/4층	출입문 우측 4m지점 하단부(0.3m)설치
01231322106 (1154)	우리넷	37.556	127.014	서울 중구 신당동 333-37	SKT2	[지상] 2/4층	출입문 좌측 3m지점 하단부(0.5m)
01231316360 (1155)	엔티모아	37.657	126.832	경기 고양시 덕양구 주교동 601	SKT2	[지상] 5/6층	축전지실
01231307714 (1156)	엔티모아	35.203	128.57	경남 창원시 마산합포구 서성동 83-6	SKT2	[지상] 1/2층	냉방기1.2호기사이
01227729678 (1157)	우리넷	35.156	126.867	광주 서구 쌍촌동 237-4	SKT2	[지상] 1/2층	출입구 우측벽면 5m
01227588031 (1158)	우리넷	35.081	126.832	광주 남구 지석동 409-2	SKT2	[지상] 2/3층	통신접지단자반 하단 콘센트 설치
01231308309 (1159)	엔티모아	35.95	127.661	전북 무주군 적상면 사천리 525-2	SKT2	[지상] 1/2층	1-C4 후면 1M 콘센트
01231316293 (1160)	우리넷	37.485	126.717	인천 부평구 부평동 760-389	SKT2	[지하] 2/3층	
01227587354 (1161)	우리넷	35.121	126.882	광주 서구 풍암동 1086	SKT1	[지상] 2/4층	벽면 상단
01231308276 (1163)	엔티모아	35.95	127.661	전북 무주군 적상면 사천리 525-2	SKT2	[지상] 2/2층	2-A12 우측 1M 콘센트
01231321682 (1164)	엔티모아	37.432	127.168	경기 성남시 중원구 상대원동 517-14	SKT2	[지상] 8/12층	
01231300196 (1165)	우리넷	37.519	126.781	경기 부천시 내동 217	SKT1	[지상] 1/3층	출입문 우측 5M 벽면 하단부 0.3M 지점
01227588043 (1166)	우리넷	35.124	126.87	광주 서구 풍암동 산 93-3	SKT2	[지상] 1/2층	축전지 뒷면 벽
01231307776 (1167)	엔티모아	35.049	127.787	경남 하동군 고전면 신월리 948-1	SKT2	[지상] 2/2층	축전지실 벽면 앞(입구 좌편)
01231300025 (1169)	우리넷	37.008	127.263	경기 안성시 석정동 264-1	SKT1	[지상] 1/2층	출입문 왼쪽
01231307525 (1170)	엔티모아	35.049	127.787	경남 하동군 고전면 신월리 948-1	SKT2	[지상] 1/2층	1-B7 랙 뒤 1M 벽면
01231300265 (1171)	우리넷	37.519	126.781	경기 부천시 내동 217	SKT1	[지상] 2/3층	MRH 정류기 좌측 옆 벽면 하단부 0.3M
01227587194 (1172)	우리넷	35.15	126.916	광주 동구 금남로3가 1-11	SKT1	[지상] 10/10층	금남로기지국
01231323008 (1174)	우리넷	37.477	127.187	경기도 광주시 남한산성면 산성리 423-1	SKT2	[지상] 1/2층	축전지실 앞 벽면
01231321331 (1175)	엔티모아	37.437	127.144	경기 성남시 중원구 성남동 2761	SKT1	[지상] 2/6층	
01231300183 (1176)	우리넷	35.015	126.711	전남 나주시 송월동 1099-1	SKT1	[지상] 4/5층	출입문 벽면 콘센트
01231300273 (1177)	우리넷	37.008	127.263	경기 안성시 석정동 264-1	SKT1	[지상] 2/2층	PS02-01분전반 옆
01231321744 (1178)	엔티모아	37.527	126.919	서울 영등포구 여의도동 15-24	SKT1	[지상] 5/12층	
01231300258 (1179)	우리넷	37.522	126.778	경기 부천시 내동 127	SKT1	[지상] 3/3층	출입문 우측 3M 벽면 하단부 0.3M 지점
01227587739 (1180)	우리넷	35.147	126.937	광주 동구 지산동192번지	SKT1	[지상] 2/4층	출입문 옆 벽면 하단
01231308347 (1181)	엔티모아	35.734	127.588	전북 장수군 장계면 송천리 229-14	SKT1	[지상] 2/2층	PM02-01분전반 좌측 1M 콘센트
01231307490 (1182)	엔티모아	34.754	127.996	경남 남해군 삼동면 봉화리 산 480-2	SKT1	[지상] 1/1층	"콘센트 하단, 출입문 좌측 콘센트에 설치"
01227587847 (1183)	우리넷	35.169	126.932	광주 북구 두암동 868-25	SKT1	[지상] 2/5층	2층 벽면
01231300029 (1184)	우리넷	34.94	127.685	전남 광양시 중동 1374-8	SKT1	[지상] 1/2층	AC분전반우측1M
01231323064 (1185)	우리넷	37.547	127.198	경기 하남시 덕풍북로10	SKT1	[지상] 2/4층	출입문 옆 콘센트
01231322844 (1186)	우리넷	37.547	127.198	경기 하남시 덕풍동 212-7	SKT1	[지하] 1/4층	출입문 옆 하단 콘센트
01227587499 (1187)	우리넷	33.458	126.317	제주특별자치도 제주시 애월읍 애월리 2299-3	SKT1	[지상] 1/1층	
01231322470 (1188)	우리넷	37.547	127.198	경기 하남시 덕풍북로10	SKT1	[지상] 3/4층	냉방기 3호 옆 콘센트
01231307913 (1189)	엔티모아	37.504	126.795	경기 부천시 춘의동 146-1	SKT1	[지상] 4/5층	출입문 좌측 2M 벽면 하단부 0.3M 지점
01231322999 (1190)	우리넷	37.547	127.198	경기 하남시 덕풍북로10	SKT1	[지상] 4/4층	냉방기 1호 옆 콘센트
01227587866 (1191)	우리넷	37.497	127.234	경기 하남시 상산곡동 118-2	SKT1	[지상] 1/2층	ac분전함 하단
01227587926 (1192)	우리넷	34.497	126.26	전남 진도군 진도읍 수역리 산 148-3	SKT1	[지상] 1/1층	냉방기 앞 위치
01231300206 (1193)	우리넷	37.435	127.005	경기 과천시 대공원대로 50	SKT1	[지하] 2/2층	경마공원 향 승강장 3-4 통신실 우측
01231300335 (1195)	우리넷	37.504	126.795	경기 부천시 춘의동 146-1	SKT1	[지상] 5/5층	출입문 좌측 2M 벽면 하단부 0.3M 지점
01231316161 (1196)	우리넷	37.175	127.111	경기 화성시 산척동 54-4	SKT1	[지상] 4/4층	출입문죄측12m지점벽면
01227587882 (1197)	우리넷	37.504	126.795	경기 부천시 춘의동 146-1	SKT1	[지상] 3/5층	출입문 좌측 2M 벽면 하단부 0.3M지점
01231316479 (1198)	우리넷	37.175	127.111	경기 화성시 산척동 54-4	SKT1	[지상] 3/4층	출입문좌측12m지점벽면
01231307632 (1199)	엔티모아	34.864	127.891	경남 남해군 고현면 대곡리 72-2	SKT1	[지상] 2/2층	PM02-01 으로 3M 벽면
01231307549 (1200)	엔티모아	34.864	127.891	경남 남해군 고현면 대곡리 72-2	SKT1	[지상] 1/2층	H01-02 하론 옆 벽면 1M
01231307532 (1201)	엔티모아	34.896	128.454	경남 통영시 용남면 원평리 601-3	SKT1	[지상] 1/1층	전윈분전반 밑
01231321588 (1202)	엔티모아	37.466	127.126	경기 성남시 수정구 복정동 643-1	SKT1	[지상] 지하1/4층	냉방기4호기 우측
01231320793 (1203)	엔티모아	37.466	127.126	경기 성남시 수정구 복정동 643-1	SKT2	[지상] 1/4층	출입문 좌측 리튬 축전지 옆
01227729653 (1204)	우리넷	35.135	126.894	광주 남구 주월동 974-108	SKT2	[지상] 4/4층	주월동기지국 배터리실 내부 콘센트
01231321839 (1205)	엔티모아	37.466	127.126	경기 성남시 수정구 복정동 643-1	SKT1	[지상] 2/4층	출입문 코너 돌아 콘센트
01231321114 (1206)	엔티모아	37.466	127.126	경기 성남시 수정구 복정동 643-1	SKT2	[지상] 3/4층	출입문 코너 돌아 두번째 콘센트
01231321875 (1207)	엔티모아	37.466	127.126	경기 성남시 수정구 복정동 643-1	SKT1	[지상] 4/4층	출입문 코너 돌아 콘센트
01227587763 (1208)	우리넷	35.152	126.93	광주 동구 지산동 720-28	SKT2	[지상] 5/5층	벽면 하단
01231300223 (1209)	우리넷	37.444	127.008	경기도 과천시 경마공원대로 105	SKT1	[지하] 2/2층	선바위향 3-4 통신실 우측 안쪽
01231316460 (1210)	우리넷	37.175	127.111	경기 화성시 산척동 54-4	SKT2	[지상] 2/4층	출입문좌측12m지점벽면
01227587907 (1211)	우리넷	33.46	126.413	제주특별자치도 제주시 애월읍 고성리 1355-4	SKT2	[지상] 1/3층	
01231316402 (1212)	우리넷	37.506	126.741	인천 부평구 삼산동 466	SKT1	[지하] 1/1층	
01231307608 (1213)	엔티모아	34.881	128.418	경남 통영시 죽림리 1575-6	SKT1	[지상] 5/6층	밧데리 벽면
01231321507 (1214)	엔티모아	37.525	126.91	서울 영등포구 영등포동7가 94-64	SKT1	[지하] 1/12층	
01231321836 (1216)	엔티모아	37.5	126.91	서울 영등포구 신길동 3582	SKT1	[지상] 2/7층	출입문옆
01231300096 (1217)	우리넷	35.136	126.919	광주 남구 방림동 135-1	SKT1	[지상] 4/6층	방림동기지국 AC분전반 좌측 콘센트 설치
01231316436 (1218)	우리넷	37.481	126.882	서울 금천구 벚꽃로 309 가산디지털단지_7	SKT1	[지하] 2/4층	청원기계실 출입문 우측 하단 벽면 콘센트
01231300004 (1219)	우리넷	37.536	126.895	서울 영등포구 양평동4가 80	SKT1	[지상] 9/15층	운용계획팀 기둥 콘센트
01231316004 (1221)	엔티모아	37.52	126.675	인천 서구 가정동 497-4	SKT1	[지상] 1/2층	"냉방기 1,2호기 사이"
01231307568 (1222)	엔티모아	34.857	128.429	경남 통영시 무전동 991-7	SKT1	[지상] 1/6층	Mibos 벽면
01227587848 (1223)	우리넷	33.422	126.491	제주특별자치도 제주시 노형동 산 14-6	SKT1	[지상] 1/1층	
01231316530 (1224)	우리넷	37.508	126.72	인천시 부평구 부평대로 189	SKT1	[지하] 2/4층	부평구청_7 이동통신실내 좌측 벽면
01231315934 (1225)	엔티모아	37.52	126.675	인천 서구 가정동 497-4	SKT2	[지상] 2/2층	2층 분전반 바로옆
01231321843 (1226)	엔티모아	37.492	126.895	서울 영등포구 대림동 1052-40	SKT2	[지상] 8/8층	출입문옆 벽면
01231307559 (1227)	엔티모아	34.844	128.424	경남 통영시 중앙동 54-20	SKT1	[지상] 3/6층	중앙벽면
01231300099 (1228)	우리넷	35.105	126.492	전남 함평군 대동면 금산리 산 88-4	SKT1	[지상] 1/1층	입구 들어와서 장비 뒷편
01227727979 (1230)	우리넷	33.491	126.595	제주특별자치도 제주시 봉개동 1824-1	SKT2	[지상] 1/2층	
01227587737 (1231)	우리넷	36.149	128.31	경북 구미시 봉곡동 303-3	SKT1	[지상] 3/4층	출입문 우측 벽면
01231321903 (1232)	엔티모아	37.499	126.896	서울 영등포구 대림동 775-3	SKT1	[지상] 9/9층	기지국 내부 밧데리옆 콘센트
01227587901 (1233)	우리넷	35.146	126.918	광주 동구 광산동 78-1	SKT1	[지상] 7/8층	벽면 하단
01231307291 (1234)	엔티모아	35.273	127.903	경남 산청군 단성면 창촌리 854-1	SKT1	[지상] 1/1층	기지국 내부 1층 벽면
01231307617 (1235)	엔티모아	34.838	128.411	경남 통영시 도천동 114-8	SKT1	[지상] 1/4층	
01227587844 (1237)	우리넷	35.21	126.88	광주 북구 양산동 898	SKT2	[지상] 3/4층	실내 우측 벽면
01231307530 (1238)	엔티모아	34.826	128.403	경남 통영시 미수동365-6	SKT1	[지상] 4/4층	
01227729425 (1239)	우리넷	33.548	126.751	제주특별자치도 제주시 구좌읍 김녕리 1886	SKT1	[지상] 2/2층	
01231307409 (1240)	엔티모아	35.175	128.954	부산 강서구 대저2동 2457-2	SKT1	[지상] 1/2층	출입문 바로 옆
01227587887 (1241)	우리넷	35.15	126.866	광주 서구 쌍촌동 994-1	SKT1	[지상] 4/8층	
01231307577 (1243)	엔티모아	34.827	128.419	경남 통영시 도남동548-1	SKT2	[지상] 1/3층	1x장비뒤 벽 면
01231300140 (1244)	우리넷	35.025	126.568	전남 함평군 학교면 죽정리 157-4	SKT2	[지상] 1/1층	입구들어 와서 바로 오른쪽 위치
01231321699 (1246)	엔티모아	37.519	126.931	서울 영등포구 여의도동 44-13	SKT1	[지상] 11/11층	기지국 내부 분전반 옆 벽면
01227728192 (1247)	우리넷	35.14	126.858	광주 서구 금호동 732-1	SKT1	[지상] 3/5층	
01227587949 (1248)	우리넷	33.523	126.848	제주특별자치도 제주시 구좌읍 평대리 379-1	SKT1	[지상] 1/1층	
01231321429 (1249)	엔티모아	37.502	126.762	경기 부천시 중동 1162-5	SKT2	[지상] 4/7층	분전함 옆면 콘센트
01231307590 (1250)	엔티모아	35.569	128.162	경남 합천군 합천읍 합천리 1547	SKT1	[지상] 4/5층	
01227587782 (1251)	우리넷	36.054	128.343	경북 칠곡군 북삼읍 율리 571-21	SKT1	[지상] 1/1층	출입문 옆 콘센트
01231322878 (1253)	우리넷	37.328	126.793	경기도 안산시 원곡동 804-5 2층	SKT2	[지상] 2/2층	출입문 우측 8m지점 하단부(0.2m)설치
01231300203 (1254)	우리넷	37.328	126.793	경기도 안산시 원곡동 804-5 1층	SKT1	[지상] 1/2층	출입문 좌측 2m지점 하단부(0.2m)설치
01231322668 (1255)	우리넷	37.305	126.859	경기 안산시 상록구 이동 580-10	SKT1	[지상] 1/2층	출입문 우측 2m지점 하단부(0.2m)설치
01231300306 (1256)	우리넷	37.305	126.859	경기도 안산시 상록구 이동 580-10 2층	SKT1	[지상] 2/2층	출입문 좌측4m지점 하단부(0.3m)설치
01231321446 (1258)	엔티모아	37.482	126.65	인천 동구 송림동 8-547 제일빌딩 2층	SKT1	[지상] 2/5층	
01231321544 (1259)	엔티모아	37.438	126.677	인천 미추홀구 문학동 352-1	SKT1	[지상] 2/2층	
01231308151 (1260)	엔티모아	35.615	127.287	전북 임실군 임실읍 이도리 280	SKT1	[지상] 1/1층	1-B7 전면 2M콘센트
01231300347 (1261)	우리넷	37.293	127.009	경기도 수원시 장안구 정자동 5-25(성산빌딩)	SKT1	[지상] 2/5층	출입문 우측5m지점 벽하단부 1.2m위치 설치(중계기 아래)
01231323049 (1262)	우리넷	37.402	126.91	경기 안양시 만안구 박달동 68-18	SKT2	[지상] 3/5층	
01231322527 (1263)	우리넷	37.327	126.958	경기 의왕시 삼동 361	SKT1	[지상] 3/3층	출입문 우측 2m 지점 하단부(0.4m)설치
01227587818 (1264)	우리넷	33.497	126.554	제주특별자치도 제주시 화북이동 5342-1	SKT1	[지상] 1/1층	황세왓집중국 신국사
01227587815 (1266)	우리넷	33.497	126.554	제주특별자치도 제주시 화북이동 5342-1	SKT1	[지상] 1/1층	황세왓집중국 구국사 전원함채 옆
01231307892 (1267)	엔티모아	35.244	129.092	부산 금정구 구서동 420-30	SKT1	[지상] 1/3층	
01227587407 (1268)	우리넷	35.835	129.286	경북 경주시 천군동 206-6	SKT1	[지상] 1/2층	축전지실 출입구 맞는편 벽면
01227587927 (1270)	우리넷	35.018	126.711	전남 나주시 송월동 876-4	SKT1	[지상] 1/1층	정류기RT01-01후면우측벽3M
01231308172 (1271)	엔티모아	35.244	129.092	부산 금정구 구서동 420-30	SKT1	[지상] 2/3층	
01231300074 (1272)	우리넷	35.127	126.907	광주 남구 봉선동 1004-7	SKT1	[지상] 2/3층	출입문 우측 기둥 3m
01227723518 (1273)	우리넷	35.127	126.907	광주 남구 봉선동 1004-7	SKT1	[지상] 3/3층	출입문 우측 기둥 3m
01231308199 (1274)	엔티모아	35.417	127.38	전북 남원시 향교동 325-7	SKT1	[지상] 1/2층	
01231308186 (1275)	엔티모아	35.244	129.092	부산 금정구 구서동 420-30	SKT1	[지상] 3/3층	
01231308178 (1276)	엔티모아	35.417	127.38	전북 남원시 향교동 325-7	SKT1	[지상] 2/2층	2-A12-2 전면 1.5M 콘센트
01231321536 (1277)	엔티모아	37.498	126.776	경기 부천시 중동 1131-4	SKT1	[지상] 14/15층	1415호 분전반 옆 콘센트
01227587950 (1278)	우리넷	35.844	129.233	경북 경주시 동천동 946-6	SKT1	[지상] 2/2층	출입구 좌측
01227587678 (1279)	우리넷	35.994	129.404	경북 포항시 남구 청림동 978-12	SKT1	[지상] 1/2층	출입문 오른쪽
01227587920 (1280)	우리넷	35.994	129.404	경북 포항시 남구 청림동 978-12	SKT1	[지상] 2/2층	출입문 왼쪽
01227588005 (1281)	우리넷	33.509	126.535	제주특별자치도 제주시 일도이동 165-1	SKT1	[지상] 1/2층	일도통합국 1층
01227587891 (1282)	우리넷	33.509	126.535	제주특별자치도 제주시 일도이동 165-1	SKT1	[지상] 2/2층	일도통합국 2층 (집중국)
01231308158 (1284)	엔티모아	35.362	127.093	전북 순창군 팔덕면 덕천리 229-11	SKT1	[지상] 1/1층	1-A7 후면 1M 콘센트
01227728122 (1285)	우리넷	34.8	126.416	전남 목포시 상동 937-10	SKT1	[지상] 2/2층	출입문 우측벽. 끝쪽. 11m/H02-02옆
01231321683 (1286)	엔티모아	37.601	126.72	경기도 김포시 풍무동 429-11	SKT1	[지상] 3/4층	출입문 입구 좌측 콘센트
01227587913 (1287)	우리넷	36.082	129.391	경북 포항시 북구 장성동 1398-6	SKT1	[지상] 2/3층	리튬축전지 앞
01227587670 (1288)	우리넷	35.844	129.233	경북 경주시 동천동 946-6	SKT1	[지상] 1/2층	정류기#1 뒷편 벽면
01227587973 (1289)	우리넷	36.082	129.391	경북 포항시 북구 장성동 1398-6	SKT1	[지상] 3/3층	출입문 오른쪽
01227587990 (1290)	우리넷	35.196	126.566	전남 함평군 해보면 금계리 산 37	SKT2	[지상] 1/1층	냉방기 앞쪽 콘센트
01231307937 (1293)	엔티모아	35.196	129.103	부산 동래구 안락동 606-1	SKT1	[지상] 7/7층	
01231307750 (1294)	엔티모아	35.203	128.57	경남 창원시 마산합포구 서성동 83-6	SKT2	[지상] 2/2층	2층기지국축전지 앞단콘센트 이용
01231321530 (1295)	엔티모아	37.76	126.776	경기 파주시 아동동 335-1	SKT2	[지상] 8/9층	냉방기 뒤
01231321459 (1297)	엔티모아	37.645	126.785	경기 고양시 일산동구 백석동 1288-2	SKT1	[지상] 7/10층	냉방기 옆
01231321430 (1298)	엔티모아	37.77	126.778	경기 파주시 아동동 275-5	SKT1	[지하] 1/4층	축전지 옆
01227588040 (1299)	우리넷	34.804	126.376	전남 목포시 산정동 1780-4	SKT1	[지상] 5/5층	기지국 우측 벽
01227587444 (1300)	우리넷	34.804	126.396	전남 목포시 용당동960-114	SKT2	[지상] 7/8층	메인분전반 측
01231322491 (1301)	엔티모아	37.335	127.949	강원 원주시 명륜동 244	SKT2	[지상] 5/6층	출입구에서 좌측 벽
01231322452 (1302)	엔티모아	37.335	127.949	강원 원주시 명륜동 244	SKT1	[지상] 4/6층	H04-01 좌측 벽
01231300390 (1303)	우리넷	37.677	127.055	서울 노원구 상계동 1132-9	SKT2	[지하] 1/3층	수락산_7 통신실
01221321521 (1305)	엔티모아	37.743	126.808	경기 파주시 조리읍 봉일천리 209-3	SKT2	[지상] 12/12층	
01231321410 (1306)	엔티모아	37.368	126.811	경기 시흥시 능곡동 747	SKT1	[지상] 5/6층	MR1 축전지 옆 콘센트
01231300433 (1307)	우리넷	37.491	127.007	서울 서초구 서초동 1748-8	SKT1	[지하] 1/2층	서초역 대합실 개찰구 통과후 전실 안
01231316328 (1308)	우리넷	37.655	127.299	경기 남양주시 화도읍 마석우리 520-37	SKT1	[지상] 4/4층	출입문좌측5m지점
01231300257 (1309)	우리넷	37.508	126.72	인천 부평구 청천동 112-1	SKT1	[지하] 1/1층	
01227724303 (1310)	우리넷	35.054	126.985	전남 화순군 화순읍 삼천리 567	SKT1	[지상] 2/2층	출입문 우측벽 2m
01227587778 (1311)	우리넷	36.128	128.115	경북 김천시 평화동 72-51	SKT2	[지상] 2/2층	우측 EPS실 좌측 벽면
01231316200 (1312)	우리넷	37.655	127.299	경기 남양주시 화도읍 마석우리 520-37	SKT2	[지상] 3/4층	출입문우측5m지점
01231307273 (1313)	엔티모아	35.159	128.977	부산 사상구 괘법동 577-30	SKT1	[지상] 2/2층	
01231307817 (1314)	엔티모아	35.159	128.977	부산 사상구 괘법동 577-30	SKT1	[지상] 1/2층	
01231300487 (1315)	우리넷	37.566	126.985	서울 중구 을지로2가 11	SKT1	[지상] 1/2층	출입문 죄측 1M
01231307965 (1316)	엔티모아	35.072	128.983	부산 사하구 구평동 435-231	SKT1	[지하] 1/3층	안전수칙 현황판 옆
01231315609 (1317)	엔티모아	36.201	127.092	충남 논산시 취암동 1067-2	SKT1	[지상] 1/2층	1층 장비실내 출입문 좌측
01231315829 (1319)	엔티모아	36.201	127.092	충남 논산시 취암동 1067-2	SKT1	[지상] 2/2층	2층 장비실내 안쪽 정면벽
01231307340 (1320)	엔티모아	35.086	129.005	부산 사하구 감천동 459-2	SKT2	[지상] 4/8층	안전수칙 현황판 옆
01227587605 (1321)	우리넷	36.13	128.182	경북 김천시 율곡동 1087	SKT1	[지상] 2/2층	출입구 좌측 벽면
01227586971 (1322)	우리넷	34.946	126.976	전남 화순군 춘양면 우봉리 430	SKT2	[지상] 1/1층	줄입문. 좌측벽면 6m(H01-02)
01231307596 (1323)	엔티모아	35.147	128.986	부산 사상구 학장동 261-4	SKT1	[지상] 2/3층	
01231316448 (1324)	우리넷	37.547	127.198	경기 하남시 덕풍동 212-1	SKT1	[지하] 1/4층	출입문정면21m지점
01231307916 (1325)	엔티모아	35.147	128.986	부산 사상구 학장동 261-4	SKT1	[지상] 3/3층	
01231316335 (1326)	우리넷	37.547	127.198	경기 하남시 덕풍동 212-1	SKT1	[지상] 3/4층	출입문저연21m지점
01231316346 (1328)	우리넷	37.547	127.198	경기 하남시 덕풍동 212-1	SKT1	[지상] 4/4층	출입문저연21m지점
01231307434 (1329)	엔티모아	35.19	128.116	경남 진주시 하대동 559	SKT1	[지상] 2/2층	
01231315963 (1330)	엔티모아	36.284	126.92	충남 부여군 부여읍 쌍북리 583-11	SKT1	[지상] 2/2층	장비실 출입문 좌측 벽
01231316461 (1331)	우리넷	37.533	126.902	서울특별시 영등포구 양평로 40	SKT1	[지하] 1/3층	9호선 당산역 B1 이동통신실 안 정면 벽단자 설치
01231316132 (1332)	엔티모아	37.724	126.717	경기 파주시 동패동 1694-2	SKT1	[지상] 10/10층	출입문 뒤
01231321243 (1333)	엔티모아	37.257	126.586	경기도 안산시 단원구 대부북동 산169	SKT1	[지상] 2/3층	기지국 입구 오른쪽 벽면 하단 콘센트
01231321506 (1334)	엔티모아	37.257	126.586	경기 안산시 단원구 대부북동 산 169	SKT1	[지상] 1/3층	1층 하론 옆 벽면 하단 콘센트
01231300311 (1335)	우리넷	37.552	127.088	서울 광진구 능동 256-3	SKT2	[지상] 4/6층	LTE링먹스 후면 중앙기둥
01227587859 (1336)	우리넷	37.395	127.238	경기 광주시 장지동 410-1	SKT2	[지상] 4/4층	출입문정면3m지점
01231316158 (1337)	우리넷	37.393	127.238	경기 광주시 장지동 339-1	SKT1	[지상] 3/4층	출입문정면3m지점
01231307636 (1338)	엔티모아	34.874	128.629	경남 거제시 상동동 482-10	SKT1	[지상] 2/2층	
01231316485 (1339)	우리넷	37.393	127.238	경기 광주시 장지동 339-1	SKT1	[지상] 2/4층	출입문좌측20m지점
01231322644 (1340)	우리넷	37.255	127.061	경기 수원시 영통구 매탄동 509-7	SKT1	[지상] 2/6층	삼성전자기지국 벽면 콘센트
01231307348 (1341)	엔티모아	34.874	128.629	경남 거제시 상동동 482-10	SKT1	[지상] 1/2층	
01231300343 (1342)	우리넷	37.49	127.477	경기 양평군 강상면 병산리 493-9	SKT1	[지상] 1/2층	출입문 좌측 2m지점(하론소화설비 H01-01옆) 하단부(0.3m)설치
01227721622 (1343)	우리넷	37.49	127.477	경기 양평군 강상면 병산리 493-9	SKT1	[지상] 2/2층	출입문 우측 11m지점(정류기 전원판넬 옆) 하단부(0.3m)설치
01231322658 (1345)	우리넷	38.035	127.366	경기 포천시 이동면 장암리 510-3	SKT1	[지상] 4/4층	출입문 좌측 축전지실내 하단부(0.4m)설치
01231322284 (1346)	우리넷	37.803	127.084	경기도 양주시 삼숭동 677	SKT1	[지상] 1/2층	출입문 우측1.5m지점 하단부(0.4m)설치
01231322589 (1347)	우리넷	37.803	127.084	경기도 양주시 삼숭동 677번지 2층	SKT1	[지상] 2/2층	출입문 좌측 3m지점 하단부(0.4m)설치
01231322546 (1348)	우리넷	37.853	126.808	경기 파주시 파주읍 향양리 699-4	SKT1	[지상] 2/3층	출입문 좌측 3m지점(통신접지단자대 아래) 하단부(0.3m)설치
01231322688 (1349)	우리넷	37.853	126.808	경기 파주시 파주읍 향양리 699-4	SKT2	[지상] 3/3층	출입문 좌측 3m지점(통신접지단자대 아래) 하단부(0.3m)설치
01231315834 (1350)	엔티모아	36.353	127.33	대전 유성구 구암동 601-18	SKT1	[지상] 2/2층	A02-04 냉방기 좌측
01231315882 (1351)	엔티모아	36.353	127.33	대전 유성구 구암동 601-18	SKT1	[지상] 1/2층	A01-03 냉방기 좌측
01231322623 (1352)	우리넷	37.744	126.81	경기 파주시 조리읍 봉일천리 218	SKT1	[지상] 2/2층	출입문 좌측 11m지점 하단부(0.3m)설치
01231322699 (1353)	우리넷	37.744	126.81	경기 파주시 조리읍 봉일천리 218	SKT1	[지상] 1/2층	출입문 좌측 1m지점 하단부(0.3m)설치
01231321985 (1354)	우리넷	37.707	126.731	경기 파주시 동패동 277-19	SKT1	[지상] 1/2층	출입문 좌측 1m지점 하단부(0.3m)설치
01231322575 (1355)	우리넷	37.707	126.731	경기 파주시 동패동 277-19	SKT1	[지상] 2/2층	출입문 좌측 5m지점 하단부(0.3m)설치
01231308098 (1356)	엔티모아	35.088	129.038	부산 영도구 남항동2가 65	SKT1	[지상] 2/3층	
01231307233 (1357)	엔티모아	35.088	129.038	부산 영도구 남항동2가 65	SKT1	[지상] 3/3층	
01231307422 (1358)	엔티모아	34.874	128.69	경남 거제시 아주동 1662-2	SKT2	[지상] 2/2층	출입문 우측 1M
01231307616 (1359)	엔티모아	34.874	128.69	경남 거제시 아주동 1662-1	SKT2	[지상] 1/2층	출입문 우측 1M
01231315792 (1361)	엔티모아	36.434	127.387	대전 유성구 송강동 49-6	SKT1	[지상] 1/2층	PM01-01 분전반 우측하단
01231315992 (1362)	엔티모아	36.434	127.387	대전 유성구 송강동 49-6	SKT1	[지상] 2/2층	A01-03 냉방기 우측
01227587893 (1363)	우리넷	35.365	126.808	전남 장성군 장성읍 용강리 535-2	SKT1	[지상] 1/1층	LTE랙 뒤 벽면
01231300021 (1364)	우리넷	35.405	126.884	전남 장성군 북하면 중평리 645-18	SKT1	[지상] 1/1층	출입구 좌측벽면
01231307489 (1365)	엔티모아	35.515	128.874	경남 밀양시 단장면 태룡리 410	SKT1	[지상] 2/3층	1차출입문 옆 벽면
01227587719 (1366)	우리넷	35.406	126.486	전남 영광군 홍농읍 월암리 산 17	SKT1	[지상] 1/1층	
01231307936 (1367)	엔티모아	35.126	128.973	부산 사상구 엄궁동 441-1	SKT1	[지상] 3/4층	입구옆 보드판 인근
01231308175 (1368)	엔티모아	35.132	128.965	부산 사상구 엄궁동 642	SKT1	[지상] 2/5층	출입구 정면 벽측
01231321658 (1370)	엔티모아	37.536	126.828	서울 양천구 신월동 51-7	SKT1	[지하] 1/5층	화곡2 기지국 출입문 옆 벽면
01231307963 (1372)	엔티모아	35.87	127.136	전북 전주시 덕진구 송천동2가 1359-3	SKT1	[지상] 3/4층	3-A3 후면 1M 콘센트
01231315862 (1373)	엔티모아	36.567	127.285	세종시 연서면 봉암리 114-5	SKT1	[지상] 2/2층	출입구 오른쪽 50cm지점
01231308231 (1374)	엔티모아	35.87	127.136	전북 전주시 덕진구 송천동2가 1359-3	SKT2	[지상] 4/4층	4-B11 후면 3M 콘센트
01231300453 (1375)	우리넷	37.531	127.008	서울 용산구 한남동155-5	SKT1	[지상] 4/6층	출입문 오른쪽끝
01231300431 (1376)	우리넷	37.593	127.093	서울 중랑구 면목동 89-32	SKT1	[지상] 5/9층	상봉터미널
01231316353 (1377)	엔티모아	37.324	127.095	경기 용인시 수지구 풍덕천동 708-1	SKT1	[지상] 4/7층	4층 축전지(BT04-01 1조)좌측 하부 2.0M
01231315985 (1378)	엔티모아	36.992	127.593	충북 음성군 금왕읍 무극리 242-5	SKT1	[지상] 5/5층	출입문 우측 벽
01231316368 (1379)	엔티모아	37.324	127.095	경기도 용인시 수지구 풍덕천동 708-1 5층	SKT1	[지상] 5/7층	5층 축전지(BA05-03 1조)좌측 하부 3.0M
01231300139 (1380)	우리넷	37.586	127.029	서울 성북구 고려대로 지하89	SKT1	[지하] 2/3층	출입문앞
01231321633 (1381)	엔티모아	37.366	127.142	경기 성남시 분당구 분당동 173-2	SKT2	[지상] 5/6층	냉방기 옆 벽면 콘센트
01231316107 (1382)	엔티모아	37.324	127.095	경기도 용인시 수지구 풍덕천동 708-1 6층	SKT1	[지상] 6/7층	6층 축전지(BA06-01 3조) 후면 하부 외벽 0.4M
01231315918 (1383)	엔티모아	36.916	127.553	충북 음성군 맹동면 두성리 1016	SKT2	[지상] 2/2층	정류기 RA02-01 뒤편 벽
01231300012 (1384)	우리넷	35.159	126.9	광주 북구 임동 85-2	SKT2	[지상] 5/10층	출입문 좌측벽면 기둥 8m
01231315821 (1385)	엔티모아	36.567	127.285	세종시 연서면 봉암리 114-5	SKT2	[지상] 1/2층	출입구 오른쪽벽 3m지점
01231315743 (1386)	엔티모아	36.464	127.279	세종특별자치시 금남면 용포리 319-10	SKT1	[지상] 1/1층	통신접지 단자대 하부
01231300474 (1387)	우리넷	37.619	127.083	서울 노원구 화랑로 지하510	SKT1	[지하] 2/3층	역무실 내 시스템실 벽면
01231315842 (1388)	엔티모아	36.854	127.43	충북 진천군 진천읍 교성리 288-34	SKT2	[지상] 2/2층	분전반 PM02-01 우측 벽
01231315810 (1389)	엔티모아	36.854	127.43	충북 진천군 진천읍 교성리 288-34	SKT2	[지상] 1/2층	출입문 좌측 벽
01231315780 (1390)	엔티모아	36.783	127.588	충북 증평군 증평읍 장동리 764	SKT2	[지상] 1/1층	출입문 좌측 벽
01227587946 (1391)	우리넷	33.266	126.419	제주특별자치도 서귀포시 색달동 1661-1	SKT1	[지상] 1/2층	중문집중국 1층 1A4 뒷 콘센트
01227588074 (1392)	우리넷	35.161	126.919	광주 동구 계림동 562-8	SKT1	[지상] 3/8층	3층 미화창고 출입문 정면 창가벽 9m
01231315987 (1393)	엔티모아	36.478	127.305	세종특별자치시 금남면 장재리 364	SKT1	[지상] 2/2층	출입문에서 좌측으로 2m지점
01231308174 (1394)	엔티모아	35.798	127.141	전북 전주시 완산구 평화동1가 406-9	SKT1	[지상] 3/4층	3F-3 냉방기 우측 0.5M 콘센트
01231322779 (1395)	우리넷	37.272	127.047	경기 수원시 영통구 매탄동 102-10	SKT1	[지상] 1/4층	
01231300250 (1396)	우리넷	37.272	127.047	경기 수원시 영통구 매탄동 102-10	SKT2	[지상] 3/4층	출입문좌측6m지점
01231308212 (1397)	엔티모아	35.798	127.141	전북 전주시 완산구 평화동1가 406-9	SKT1	[지상] 4/4층	4F-4 냉방기 우측 0.5M 콘센트
01231316457 (1398)	우리넷	37.272	127.047	경기 수원시 영통구 매탄동 102-10	SKT1	[지상] 4/4층	출입문좌측6m지점
01231315897 (1399)	엔티모아	36.478	127.305	세종시 금남면 장재리 364	SKT1	[지상] 1/2층	출입구에서 좌측으로 2m지점
01231321292 (1400)	엔티모아	37.454	126.605	인천 중구 항동7가 27-130	SKT1	[지상] 3/6층	기지국 1차 출입문 옆 아래 콘센트
01227587532 (1401)	우리넷	36.285	128.955	경북 청송군 안덕면 명당리 333	SKT2	[지상] 1/1층	출입문 왼쪽벽면
01231316406 (1402)	엔티모아	37.236	127.19	경기 용인시 처인구 역북동 427 1층	SKT1	[지상] 1/2층	1층 출입문 좌측 하부 외벽 1M
01227587880 (1403)	우리넷	33.252	126.538	제주특별자치도 서귀포시 호근동 565	SKT1	[지상] 1/2층	호근동 1층 1Z3 밑 콘센트
01231316308 (1406)	엔티모아	37.236	127.19	경기도 용인시 처인구 역북동 427 2층	SKT1	[지상] 2/2층	2층 분전반(PM02-02) 좌측 하부 외벽 0.5M
01231322950 (1407)	우리넷	37.397	126.974	경기 안양시 동안구 관양동 224-5	SKT1	[지상] 2/21층	출이문정면16m지점
01231315968 (1408)	엔티모아	36.52	127.244	세종특별자치시 아름동 815	SKT1	[지상] 4/4층	냉방기 A04-01 우측으로 50cm
01231321615 (1409)	엔티모아	37.311	126.759	경기 안산시 단원구 성곡동 629-1	SKT1	[지상] 1/B2층	
01231322805 (1410)	우리넷	37.387	126.936	경기 안양시 만안구 안양동 200-14	SKT2	[지상] 5/7층	출입문우측9m지점
01231315902 (1411)	엔티모아	36.52	127.244	세종시 아름동 815	SKT1	[지상] 3/4층	냉방기 A03-01 우측으로 50cm
01227728160 (1412)	우리넷	35.15	126.915	광주 동구 금남로3가 1-11	SKT1	[지하] 1/10층	지하 1층 엘레베이터1.2호기 외벽 3m
01231322651 (1413)	우리넷	37.266	127.081	경기 수원시 영통구 영통동 945-4	SKT2	[지상] 4/7층	4층 황골기지국 벽면
01231321371 (1414)	엔티모아	37.451	126.656	인천 미추홀구 용현동 191-5	SKT1	[지상] 2/4층	
01231300276 (1415)	우리넷	37.592	127.016	서울 성북구 동선동1가 101-1	SKT1	[지하] 2/2층	출입문 맞은편 벽면
01231322811 (1417)	우리넷	37.635	126.832	경기 고양시 덕양구 화정동 967-3	SKT1	[지상] 11/11층	출입문좌측5m지점하단
01231322544 (1418)	우리넷	37.27	127.01	경기 수원시 팔달구 매산로3가 35-15	SKT1	[지상] 6/8층	출입구 왼쪽 벽면
01231307524 (1419)	엔티모아	35.174	128.989	부산 사상구 덕포동 777-3	SKT1	[지상] B1/4층	출입구 바로 엽
01231322508 (1420)	우리넷	37.263	127.025	경기 수원시 팔달구 인계동 1015-3	SKT1	[지상] 13/1층	
01231322368 (1421)	우리넷	37.293	127.031	경기 수원시 장안구 연무동 245-49	SKT2	[지상] 3/1층	
01231306835 (1422)	엔티모아	35.143	129.074	부산 남구 문현동 119-18	SKT1	[지상] 2/5층	출입문 왼쪽 분전반 옆
01231307887 (1424)	엔티모아	35.174	129.128	부산 해운대구 우동 1460	SKT1	[지상] 4/14층	축전지 옆
01231300062 (1425)	우리넷	37.557	126.972	서울 중구 남대문로5가 84-15	SKT2	[지하] 1/B2층	직원 침실 출입문 벽면
01227587554 (1426)	우리넷	37.57	127.009	서울 종로구 율곡로 지하 308	SKT1	[지하] 3/4층	출입문앞
01231322877 (1428)	우리넷	37.677	126.797	경기 고양시 일산동구 풍동 218-3	SKT1	[지상] 1/3층	출입문좌측1.5m지점
01231316343 (1429)	우리넷	37.516	126.929	서울 영등포구 의사당대로 166	SKT1	[지하] B1/B3층	
01231316423 (1430)	우리넷	37.677	126.797	경기 고양시 일산동구 풍동 218-3	SKT1	[지상] 2/3층	출입문좌측60cm지점
01231323011 (1431)	우리넷	37.677	126.797	경기 고양시 일산동구 풍동 218-3	SKT2	[지상] 3/3층	출입문좌측하단
01231307629 (1432)	엔티모아	35.206	129.081	부산 동래구 명륜동 564-26	SKT1	[지상] 8/9층	
01231316447 (1433)	우리넷	37.509	126.963	서울 동작구 현충로 90	SKT1	[지하] B1/B3층	
01227588065 (1435)	우리넷	34.764	127.664	전남 여수시 학동 37-3	SKT2	[지상] 1/2층	1층화장실벽
01231322712 (1436)	우리넷	37.272	127.047	경기 수원시 영통구 매탄동 102-10	SKT2	[지상] 2/4층	2층S수원광교기지국 벽면
01231322672 (1437)	우리넷	37.272	127.047	경기 수원시 영통구 매탄동 102-10	SKT2	[지상] 3/4층	3층S수원광교 중심국 벽면
01231307723 (1438)	엔티모아	35.192	128.074	경남 진주시 인사동 120-5	SKT1	[지상] 2/3층	SKB인버터 분전반 밑
01231307585 (1439)	엔티모아	35.192	128.074	경남 진주시 인사동 120-5	SKT1	[지상] 3/3층	3-A10 전송IPD 뒤 1M
01231307573 (1440)	엔티모아	34.888	128.622	경남 거제시 고현동 961-143	SKT1	[지상] 7/7층	기지국현황게시판옆
01231300256 (1441)	우리넷	36.625	127.5	충북 청주시 상당구 금천동 171-66	SKT1	[지상] 2/2층	출입문 정면 벽 콘센트
01231307441 (1442)	엔티모아	35.205	129.074	부산시 동래구 충렬대로 126번길8	SKT1	[지상] 3/5층	
01231307699 (1443)	엔티모아	35.205	129.074	부산시 동래구 충렬대로 126번길8	SKT2	[지상] 4/5층	
01231307472 (1444)	엔티모아	35.205	129.074	부산시 동래구 충렬대로 126번길8	SKT1	[지상] 5/5층	
01227587976 (1445)	우리넷	34.936	127.703	전남 광양시 마동 1142-10	SKT2	[지상] 2/3층	하론H02-01우측6M벽
01231300371 (1446)	우리넷	36.625	127.5	충북 청주시 상당구 금천동 171-66	SKT2	[지상] 1/2층	출입문 우측 하단
01231316439 (1447)	우리넷	37.583	126.911	서울 서대문구 북가좌동 343-1	SKT2	[지상] 10/10층	증산역W
01231307505 (1448)	엔티모아	34.892	128.61	경남 거제시 장평동 372-8	SKT1	[지상] 5/5층	배터리실문옆
01231307947 (1452)	엔티모아	35.17	129.175	부산 해운대구 좌동 1460-4	SKT1	[지상] 9/10층	AC분전반 옆
01227713007 (1453)	우리넷	34.955	127.486	전남 순천시 동외동 90-1	SKT1	[지상] 4/9층	출입문우측UPS분전반하단
01231307346 (1454)	엔티모아	35.133	129.076	부산 남구 문현동 271-2	SKT2	[지상] 3/5층	출입문 정면 기지국현황 밑
01231315650 (1455)	엔티모아	36.634	127.463	충북 청주시 서원구 사창동296-1	SKT1	[지상] 3/10층	출입문 정면 첫번째 기둥 하단
01231300009 (1456)	우리넷	34.644	126.787	전남 강진군 군동면 호계리 812-3	SKT1	[지상] 2/2층	출입문 좌_벽면 5m
01231321017 (1457)	엔티모아	37.432	126.793	경기 시흥시 은행동 288-1	SKT1	[지상] 2/7층	
01231307383 (1458)	엔티모아	35.168	129.178	부산 해운대구 좌동 1483-2	SKT2	[지상] 6/11층	환풍기 옆
01231321525 (1459)	엔티모아	37.618	126.843	경기 고양시 덕양구 행신동 181-5	SKT1	[지상] 5/6층	
01231322876 (1460)	우리넷	37.65	126.89	경기 고양시 덕양구 삼송동 143-47	SKT1	[지상] 2/3층	출입구좌측7m지점하단
01231307515 (1461)	엔티모아	35.177	129.175	부산 해운대구 좌동 1289-2	SKT1	[지상] 8/9층	AC분전반 옆
01231307554 (1462)	엔티모아	35.113	129.082	부산 남구 감만동 301	SKT2	[지상] 4/5층	출입문 왼쪽 AC분전반 옆
01231322967 (1463)	우리넷	37.65	126.89	경기 고양시 덕양구 삼송동 143-47	SKT2	[지상] 3/3층	출입문좌측정면25m지점벽하단
01227728323 (1464)	우리넷	34.366	126.725	전남 완도군 완도읍 대야리 187-1	SKT1	[지상] 2/2층	출입문 우측 벽면 2m
01231307506 (1465)	엔티모아	35.117	129.095	부산 남구 용당동 399-2	SKT1	[지상] 2/4층	출입문 왼쪽 모서리 분전반 밑
01227722260 (1466)	엔티모아	37.623	126.833	경기 고양시 덕양구 행신동 999-2	SKT2	[지상] 3/9층	
01231307564 (1467)	엔티모아	35.119	129.111	부산 남구 용호동 370-18	SKT1	[지상] 5/6층	출익문 왼쪽 안전수칙 밑
01231308169 (1468)	엔티모아	35.149	128.7	경남 창원시 진해구 이동 62-122	SKT1	[지상] 3/3층	냉방기1호기옆 콘센트
01231315925 (1470)	엔티모아	36.633	127.446	충북 청주시 흥덕구 복대동 150-2	SKT1	[지상] 3/3층	출입문 우측 메인 분전반 옆
01231315696 (1471)	엔티모아	36.633	127.446	충북 청주시 흥덕구 복대동150-2	SKT2	[지상] 2/3층	출입문 우측 벽 하단
01231322490 (1473)	우리넷	37.351	126.954	경기 군포시 당정동 474-1	SKT1	[지상] 7/7층	Ac분전반
01231322964 (1474)	우리넷	37.409	126.911	경기 안양시 만안구 석수동 314-9	SKT1	[지상] 7/7층	에어컨 사이 전원 콘센트
01227721731 (1476)	우리넷	37.37	126.943	경기 군포시 금정동 40-2	SKT1	[지상] 6/9층	기지국 내 시설
01231316003 (1477)	엔티모아	36.348	126.608	충남 보령시 동대동 1604	SKT1	[지상] 2/2층	2-C5 DU랙 #5 뒷편 벽
01231316002 (1478)	엔티모아	36.348	126.608	충남 보령시 동대동 1604	SKT1	[지상] 1/2층	CIENA ROTN 장비 뒷편 벽
01231308328 (1479)	엔티모아	35.945	126.557	전북 군산시 오식도동 900	SKT2	[지상] 2/2층	PM02-01 열 1M 콘센트
01231308120 (1480)	엔티모아	35.959	126.769	전북 군산시 개정동 12-6	SKT2	[지상] 2/2층	출입문 죄축 3M 콘센트
01231315664 (1482)	엔티모아	35.727	127.085	전북 김제시 금산면 금산리 산 1-1	SKT1	[지상] 1/1층	모악산 기지국
01231322738 (1486)	우리넷	37.24	126.971	경기 수원시 권선구 오목천동 204	SKT1	[지상] 4/4층	출입문좌측6m지점
01227587915 (1487)	우리넷	37.24	126.971	경기 수원시 권선구 오목천동 204	SKT1	[지상] 3/4층	출입문좌측6m지점
01231316307 (1488)	엔티모아	37.485	126.533	인천 중구 운남동 208-4	SKT2	[지상] 1/3층	출입문 좌측 벽부콘센트
01231322965 (1489)	우리넷	37.24	126.971	경기 수원시 권선구 오목천동 204	SKT1	[지상] 2/4층	출입문좌측6m지점
01231316278 (1490)	엔티모아	37.485	126.533	인천 중구 운남동 208-4	SKT1	[지상] 2/3층	출입문 좌측 벽부콘센트
01231321218 (1491)	엔티모아	37.653	126.791	경기 고양시 일산동구 마두동 731	SKT2	[지상] 5/7층	
01231316345 (1492)	엔티모아	37.485	126.533	인천 중구 운남동 208-4	SKT1	[지상] 3/3층	장비실 내 케비넷#7-11뒷면 Bit실내 콘센트
01231316387 (1493)	엔티모아	37.59	127.018	서울 성북구 동선동2가 3-1	SKT2	[지상] 3/6층	
01231307819 (1495)	엔티모아	35.147	128.881	부산 강서구 범방동 1901-6	SKT1	[지상] 2/3층	축전지 옆
01231322963 (1496)	우리넷	37.266	126.954	경기 수원시 권선구 호매실동 409-6	SKT2	[지상] 2/1층	출입문우측5m지점
01231322690 (1497)	우리넷	37.266	126.954	경기 수원시 권선구 호매실동 409-6	SKT2	[지상] 2/2층	출입문좌측5m지점
01231307896 (1498)	엔티모아	35.098	128.921	부산 강서구 명지동 3358-4	SKT1	[지상] 7/9층	출입구 왼측 벽면
01231322305 (1499)	우리넷	37.299	126.973	경기 수원시 장안구 율전동 281-2	SKT1	[지상] 4/4층	출입문좌측30cm지점
01231322231 (1500)	우리넷	37.299	126.973	경기 수원시 장안구 율전동 281-2	SKT1	[지상] 3/4층	출입문좌측30cm지점
01231322180 (1501)	엔티모아	37.745	128.893	강원 강릉시 노암동 640	SKT1	[지상] 1/1층	정류기 RA01-01 벽면
01231322606 (1503)	우리넷	37.345	126.735	경기 시흥시 정왕동 1735-5	SKT1	[지상] 2/3층	출입문우측8m지점기둥
01231322654 (1504)	우리넷	37.442	126.8	경기 시흥시 은행동 539-4	SKT2	[지상] 5/5층	출입문좌측벽15m지점
01231307576 (1505)	엔티모아	35.141	129.056	부산 동구 범일동 62-730	SKT1	[지상] 9/10층	AC분전반 옆
01227729214 (1507)	우리넷	37.737	127.084	경기 의정부시 용현동 278-7	SKT1	[지상] 1/3층	
01231322639 (1508)	우리넷	37.737	127.084	경기 의정부시 용현동 278-7	SKT1	[지상] 3/3층	
01231321133 (1509)	엔티모아	37.362	126.73	경기 시흥시 정왕동 1882-8	SKT1	[지상] 5/5층	
01231307648 (1510)	엔티모아	35.095	129.053	부산 영도구 청학동 391-640	SKT1	[지하] 1/4층	출입문 왼쪽
01231323026 (1511)	우리넷	37.737	127.084	경기 의정부시 용현동 278-7	SKT2	[지상] 2/3층	
01231323025 (1512)	우리넷	37.396	126.938	경기 안양시 동안구 비산동 422-13	SKT2	[지상] 2/6층	비산2동 기지국 냉방기 옆 콘센트 설치
01231315624 (1513)	엔티모아	36.801	127.163	충남 천안시 동남구 원성동 643-1	SKT1	[지상] 3/4층	PM03-01 옆 기둥 콘센트에 설치
01231307730 (1514)	엔티모아	35.114	129.018	부산 서구 동대신동3가 218	SKT1	[지상] 2/5층	출입구 정면 AC분전반 옆
01231321480 (1515)	엔티모아	37.453	127.161	경기 성남시 중원구 금광동 4829	SKT2	[지상] 4/5층	
01231316409 (1516)	엔티모아	37.733	127.043	경기 의정부시 의정부동 573-2	SKT1	[지상] 5/7층	
01231321384 (1517)	엔티모아	37.436	126.881	경기 광명시 소하동 1241-4	SKT2	[지상] 5/5층	출입문 우측 벽면
01231316421 (1518)	우리넷	37.846	127.277	경기 포천시 내촌면 신팔리 127-4	SKT2	[지상] 1/1층	
01231316443 (1519)	우리넷	37.776	127.117	경기 포천시 소흘읍 이동교리 757	SKT1	[지상] 1/1층	밧데리실 벽면
01231322439 (1520)	엔티모아	37.753	128.882	강원 강릉시 홍제동 995	SKT2	[지상] 3/3층	3층 중심국 H03-01 좌측벽
01231315666 (1521)	엔티모아	36.801	127.163	충남 천안시 동남구 원성동 643-1	SKT2	[지상] 2/4층	PM02-01 옆 벽콘센트에 설치
01231323005 (1522)	우리넷	37.662	127.035	서울 도봉구 방학동 692-18	SKT2	[지상] 2/5층	
01231322848 (1523)	우리넷	37.662	127.035	서울 도봉구 방학동 692-18	SKT1	[지상] 3/5층	
01227721394 (1524)	우리넷	37.662	127.035	서울 도봉구 방학동 692-18	SKT2	[지상] 4/5층	
01231308006 (1525)	엔티모아	35.106	129.021	부산 서구 부용동1가 34-2	SKT1	[지상] 4/4층	출입문 우측 5M 벽면 콘센트
01231308135 (1526)	엔티모아	35.106	129.021	부산 서구 부용동1가 34-2	SKT2	[지상] 3/4층	출입문 우측 7M 벽면 콘센트
01231307725 (1527)	엔티모아	35.13	129.044	부산 동구 수정동 658-19	SKT1	[지상] 3/4층	출입문 우측 10M 벽면 콘센트
01231307604 (1528)	엔티모아	35.13	129.044	부산 동구 수정동 658-19	SKT1	[지상] 2/4층	출입문 우측 10M 벽면 콘센트
01231315495 (1529)	엔티모아	36.644	127.477	충북 청주시 흥덕구 운천동1111	SKT1	[지상] 3/5층	출입문 우측 분전반 옆
01231307983 (1530)	엔티모아	35.851	127.101	전북 전주시 덕진구 팔복동2가 225-8	SKT2	[지상] 1/1층	분전반 우측으로 3미터지점 벽콘센트
01231308349 (1531)	엔티모아	35.824	127.036	전북 완주군 이서면 반교리 645-6	SKT1	[지상] 2/2층	2-F6 전면 4M 콘센트
01227587936 (1532)	우리넷	37.36	126.932	경기 군포시 산본동 1125-2 13층	SKT1	[지상] 13/13층	출입문 우측 27m지점 항온항습기 4호기 옆 하단부(0.4m)설치
01231315976 (1533)	엔티모아	36.981	128.352	충북 단양군 단양읍 상진리 455	SKT1	[지상] 1/2층	출입문 우측 벽
01231322378 (1534)	엔티모아	37.363	127.862	강원 원주시 지정면 가곡리 1033-3	SKT1	[지상] 2/3층	2층 H02-01 좌측 벽
01231315861 (1535)	엔티모아	36.981	128.352	충북 단양군 단양읍 상진리 455	SKT1	[지상] 2/2층	2-A9 IPD 뒷편 벽
01231322917 (1536)	우리넷	37.546	126.915	서울 마포구 합정동 367-16	SKT1	[지상] 2/2층	출입문정면3m우측으로3m벽
01231316371 (1537)	엔티모아	37.653	127.059	서울 노원구 상계동 731-4	SKT1	[지상] 5/9층	하론 H05-01 앞 2M 하단 0.3M
01231307513 (1538)	엔티모아	34.897	128.604	경남 거제시 장평동 530	SKT2	[지상] 13/13층	출입문옆벽면
01231321634 (1539)	엔티모아	37.311	126.866	경기 안산시 상록구 일동 91-15	SKT1	[지상] 4/4층	
01231308222 (1540)	엔티모아	35.825	127.148	전북 전주시 완산구 서노송동 578-5	SKT1	[지상] 4/10층	4-k1 좌측 1M 콘센트
01231315977 (1541)	엔티모아	36.965	127.929	충북 충주시 지현동 962-5	SKT1	[지상] 2/2층	냉방기 A02-02 우측 벽
01231307483 (1542)	엔티모아	35.206	129.081	부산 동래구 명륜동 564-26	SKT1	[지상] 8/B2 / 9층	출입문 정면 벽면콘센트
01227587714 (1543)	우리넷	35.825	128.546	대구 달서구 송현동 1915-6	SKT1	[지상] 8/8층	Mbrs 정류기 후면
01227587658 (1544)	우리넷	35.825	128.546	대구 달서구 송현동 1915-6	SKT1	[지상] 3/8층	장비실 축전지 왼쪽 벽면
01231307715 (1545)	엔티모아	35.188	129.083	부산 연제구 연산동 588-20	SKT1	[지상] 9/B3 / 15층	장비실 안 MR1 뒷편 기둥벽면 콘센트
01231321640 (1546)	엔티모아	37.487	126.774	경기 부천시 심곡동 352-12	SKT1	[지상] 5/5층	벽 콘센트
01231307330 (1547)	엔티모아	35.181	128.985	부산 사상구 모라동 728-10	SKT1	[지상] 7/7층	통신접지단자반 밑
01231307973 (1549)	엔티모아	35.148	128.971	부산 사상구 감전동 171-1	SKT1	[지상] 4/4층	SKB렉 뒤 벽면
01227587608 (1551)	우리넷	35.841	128.7	대구 수성구 노변동 4-2	SKT2	[지상] 3/3층	리튬축전지 좌측 벽면
01231322601 (1552)	우리넷	38.016	127.249	경기 포천시 영중면 성동리 892-4	SKT2	[지상] 2/2층	팬UNIT옆 벽면
01227587999 (1553)	우리넷	35.841	128.7	대구 수성구 노변동 4-2	SKT1	[지상] 2/3층	축전지 측 벽면
01231321498 (1554)	엔티모아	37.451	126.889	경기도 광명시 소하동 36-9	SKT1	[지상] 2/4층	PM02-01 옆
01231321487 (1555)	엔티모아	37.451	126.889	경기도 광명시 소하동 36-9	SKT2	[지상] 3/4층	출입문 코너 3m
01231321814 (1556)	엔티모아	37.451	126.889	경기도 광명시 소하동 36-9	SKT1	[지상] 4/4층	PM04-01 옆
01231323002 (1557)	우리넷	37.637	127.215	경기 남양주시 금곡동 172-10	SKT1	[지상] 1/2층	1층 냉방기 1번 우측 기둥 콘센트에설치
01231316391 (1558)	우리넷	38.087	127.275	경기 포천시 영북면 운천리336-8	SKT1	[지상] 5/6층	출입문옆 콘센트
01231307967 (1559)	엔티모아	35.967	126.699	전북 군산시 나운동 828-2	SKT1	[지상] 2/2층	2-F6 전면 4M 콘센트
01231316322 (1560)	우리넷	38.018	127.181	경기 포천시 창수면 오가리 770-4	SKT2	[지상] 1/1층	소화기옆 벽면
01231307635 (1561)	엔티모아	35.504	129.428	울산 동구 일산동 455-5	SKT1	[지상] 4/5층	출입문 좌측 10M
01227587902 (1562)	우리넷	33.394	126.247	제주특별자치도 제주시 한림읍 협재리 1944-1	SKT1	[지상] 1/2층	축전지실 내 입구 좌측 외벽 콘센트
01227587934 (1563)	우리넷	33.284	126.299	제주특별자치도 서귀포시 안덕면 서광리 2085-2	SKT1	[지상] 2/3층	신화통합국2층 2I1 좌측1M 옆 외벽(냉방1호기 좌측)
01231315874 (1564)	엔티모아	36.347	127.383	대전 서구 탄방동 595	SKT1	[지상] 3/5층	축전지실앞 죄측 2구 콘센트
01231307373 (1565)	엔티모아	35.236	129.214	부산 기장읍 대라리 172-1	SKT1	[지상] 2/3층	출입문 좌측 2M 벽면 콘센트
01231307427 (1566)	엔티모아	35.222	129.15	부산 해운대구 반송동 250-902	SKT1	[지상] 4/5층	내부 안쪽 IVR#1 장비 뒤편
01231307421 (1567)	엔티모아	35.236	129.214	부산 기장읍 대라리 172-1	SKT1	[지상] 1/3층	출입문 우측 5M 벽면 콘센트
01231307690 (1569)	엔티모아	35.321	129.174	부산 기장군 정관면 매학리 718-3	해양경찰청	[지상] 4/4층	출입문 우측 8M 메인분전반 옆 벽면 콘센트
01227587827 (1570)	우리넷	36.576	128.474	경북 예천군 호명면 산합리 1134	우정사업본부	[지상] 2/2층	안쪽 기둥
01227587062 (1571)	우리넷	35.711	129.319	경북 경주시 외동읍 입실리 1231	SKT1	[지상] 1/2층	출입구 좌측 벽면
01227587942 (1572)	우리넷	35.711	129.319	경북 경주시 외동읍 입실리 1231	SKT1	[지상] 2/2층	출입구 좌측 벽면
01231316046 (1573)	엔티모아	36.313	127.431	대전 중구 부사동 137-5	SKT1	[지상] 6/7층	DU용 리튬폴리머 축전지 24V R-A03-03옆
01231307679 (1576)	엔티모아	35.228	128.917	김해시 안동 543-21	SKT1	[지상] 4/7층	출입구 옆
01231307431 (1577)	엔티모아	35.221	128.849	경남 김해시 풍유동 68-5	SKT2	[지상] 3/6층	출입문옆벽면
01231307659 (1578)	엔티모아	35.261	128.87	삼계동 1478-3	SKT1	[지상] 4/6층	출입구 앞
01231307274 (1579)	엔티모아	35.188	128.858	경남 김해시 화목동 632-2	SKT1	[지상] 1/1층	출입문옆벽면
01231307466 (1580)	엔티모아	35.17	128.812	경남 김해시 율하동 1340-2	SKT1	[지상] 10/10층	분전반옆벽면
01231307666 (1581)	엔티모아	35.246	128.911	삼방동 203-18	SKT1	[지상] 3/4층	
01231307579 (1582)	엔티모아	35.199	128.815	경남 김해시 무계동 191-7	SKT1	[지상] 7/9층	하론옆 벽면
01231307449 (1583)	엔티모아	35.248	128.748	경남 김해시 진례면 송정리 233-3	SKT1	[지상] 4/4층	출입문죄측벽면
01231307609 (1584)	엔티모아	35.234	128.866	김해시 외동 1256-1	SKT1	[지상] 10/12층	
01231307526 (1585)	엔티모아	35.277	128.833	경남 김해시 한림면 신천리 395-11	SKT1	[지상] 2/4층	분전반옆콘센트
01227587469 (1586)	우리넷	33.44	126.88	제주특별자치도 서귀포시 성산읍 수산리 1023-2	SKT1	[지상] 1/1층	1Z4 장비분저반 우측 하단 콘센트
01231307986 (1587)	엔티모아	35.551	129.265	울산 남구 무거동 299-10	SKT1	[지상] 17/18층	입구우측벽면
01227587137 (1588)	우리넷	36.656	128.45	경북 예천군 예천읍 서본리 45-2	SKT1	[지상] 2/2층	축전지실 입구 좌측 벽면
01231307860 (1591)	엔티모아	35.553	129.291	중구 태화동 780-3	SKT1	[지상] 4/5층	입구우측벽면
01231307587 (1592)	엔티모아	35.557	129.303	울산 중구 유곡동 114-5	SKT1	[지상] 1/5층	입구 좌측 벽면
01231307762 (1593)	엔티모아	35.547	129.32	울산 남구 신정동 265-14	SKT2	[지상] 3/4층	입구 우측벽면
01227587562 (1594)	우리넷	36.808	128.624	경북 영주시 휴천동 481-23	SKT1	[지상] 1/2층	신관 AC분전반 좌측 벽면
01231307671 (1595)	엔티모아	35.56	129.349	울산 중구 반구동 875-4	SKT1	[지상] 5/5층	입구 좌측 안쪽벽면
01231307948 (1596)	엔티모아	35.561	129.364	효문동 681	SKT1	[지상] 3/3층	입구 우측 벅면
01227587384 (1597)	우리넷	36.808	128.624	경북 영주시 휴천동 481-23	SKT1	[지상] 2/2층	신관 AC분전반 좌측 벽면
01231307990 (1598)	엔티모아	35.524	129.401	울산 북구 염포동 996-9	SKT1	[지상] 1/3층	입구 좌측 벅면
01231307623 (1599)	엔티모아	35.541	129.429	동부동 194-87	SKT1	[지상] 2/5층	축전지실내 벽면
01231307988 (1600)	엔티모아	35.523	129.432	서부동 113-70	SKT1	[지상] 3/4층	입구 우측 벽면
01231307925 (1601)	엔티모아	35.515	129.432	전하동 303-90	SKT1	[지상] 2/3층	입구 좌측 박면
01231307914 (1602)	엔티모아	35.503	129.42	울산시 동구 화정동 138-3	SKT1	[지상] 3/4층	입구좌측 벽면
01231321554 (1603)	엔티모아	37.411	127.133	경기도 성남시 분당구 야탑동382-7	SKT1	[지상] 4/5층	출입구 좌측 리튬배터리 옆
01231307063 (1605)	엔티모아	35.492	129.426	화정동 654-24	SKT2	[지상] 5/6층	입구 우측 벽면
01231307889 (1607)	엔티모아	35.487	129.417	방어동 1080-1	SKT1	[지상] 3/4층	입구 정면 벽면
01231307793 (1608)	엔티모아	35.54	129.344	삼산동 226-8	SKT1	[지상] 6/7층	입구 우측 벽면
01231321562 (1609)	엔티모아	37.411	127.133	경기도 성남시 분당구 야탑동 382-7	SKT1	[지상] 3/5층	출입구 정면 벽 냉방기 A03-02 후면
01231307915 (1610)	엔티모아	35.527	129.345	울산 남구 여천동 1158-1	SKT1	[지상] 3/4층	입구우측 벽면
01231321477 (1611)	엔티모아	37.411	127.133	경기도 성남시 분당구 야탑동 382-7	SKT1	[지상] 1/5층	출입구 우측 소화설비 옆
01231307783 (1613)	엔티모아	35.519	129.313	선암동 619-20	SKT2	[지상] -1/4층	입구좌측 벽면
01231321266 (1614)	엔티모아	37.502	127.126	서울 송파구 가락동 8-2	SKT1	[지상] 3/9층	3층 장비실 분전반 PM03-1 옆 기둥
01231321428 (1615)	엔티모아	37.502	127.112	서울 송파구 송파동 94-10	SKT1	[지하] 1/5층	출입문 정면 벽
01231321467 (1617)	엔티모아	37.502	127.112	서울시 송파구 송파동 94-10	SKT1	[지상] 1/5층	출입구 우측 테이블 옆 벽
01231321600 (1618)	엔티모아	37.502	127.112	서울시 송파구 송파동 94-10	SKT1	[지상] 2/5층	출입구 우측 테이블 옆
01231321408 (1619)	엔티모아	37.502	127.112	서울시 송파구 송파동 94-10	SKT1	[지상] 3/5층	출입구 정면 2번째 냉방기 후면
01231321383 (1620)	엔티모아	37.502	127.112	서울시 송파구 송파동 94-10	SKT1	[지상] 4/5층	출입구 정면 장비 두번째줄 옆 벽
01227587310 (1621)	우리넷	36.402	128.149	경북 상주시 개운동 27-7	SKT1	[지상] 1/2층	PS02-02-01분전반 우측 벽면
01227587472 (1622)	우리넷	36.402	128.149	경북 상주시 개운동 27-7	SKT1	[지상] 2/2층	AC분전반 좌측 벽면
01227587095 (1623)	우리넷	36.589	128.194	경북 문경시 모전동 61-2	SKT1	[지상] 1/2층	소화설비 우측 벽면
01227587450 (1624)	우리넷	36.589	128.194	경북 문경시 모전동 61-2	SKT1	[지상] 2/2층	AC분전반 우측 벽면
01231321850 (1625)	엔티모아	37.545	127.133	천호동 237-2	SKT1	[지상] 4/4층	H04-01 최측 외벽
